{"type":"FeatureCollection","features":[{"type":"Feature","geometry":{"type":"Point","coordinates":[-99.1777,19.1331]},"properties":{"id":"node/4151487224","name":"Parres El Guarda","mode":"station"}},{"type":"Feature","geometry":{"type":"Point","coordinates":[-99.2673,19.3137]},"properties":{"id":"node/4272636396","name":"Terminal capulin ruta 43","mode":"bus_station"}},{"type":"Feature","geometry":{"type":"Point","coordinates":[-99.2693,19.3044]},"properties":{"id":"node/6653373704","name":"San Bernabé (Oyamel)","mode":"station"}},{"type":"Feature","geometry":{"type":"Point","coordinates":[-99.1608,19.257]},"properties":{"id":"node/1871518000","name":"ADO-Pullman de Morelos México-Cuernavaca","mode":"bus_station"}},{"type":"Feature","geometry":{"type":"Point","coordinates":[-99.18,19.314]},"properties":{"id":"node/4987398144","name":"Investigaciones Filosóficas","mode":"bus_station"}},{"type":"Feature","geometry":{"type":"Point","coordinates":[-99.1811,19.3141]},"properties":{"id":"node/4987399085","name":"Investigaciones Filológicas","mode":"bus_station"}},{"type":"Feature","geometry":{"type":"Point","coordinates":[-99.1815,19.3141]},"properties":{"id":"node/4987402914","name":"Coordinación de Humanidades","mode":"bus_station"}},{"type":"Feature","geometry":{"type":"Point","coordinates":[-99.153,19.3012]},"properties":{"id":"node/5966746585","name":"","mode":"bus_station"}},{"type":"Feature","geometry":{"type":"Point","coordinates":[-99.156,19.2122]},"properties":{"id":"node/6629889120","name":"San Miguel Tehuizco","mode":"station"}},{"type":"Feature","geometry":{"type":"Point","coordinates":[-99.1646,19.2641]},"properties":{"id":"node/6631987287","name":"San Pedro Mártir","mode":"station"}},{"type":"Feature","geometry":{"type":"Point","coordinates":[-99.2042,19.2177]},"properties":{"id":"node/6631990134","name":"Santo Tomás Ajusco","mode":"station"}},{"type":"Feature","geometry":{"type":"Point","coordinates":[-99.2407,19.2701]},"properties":{"id":"node/6652522553","name":"Bosques del Pedregal","mode":"station"}},{"type":"Feature","geometry":{"type":"Point","coordinates":[-99.1549,19.273]},"properties":{"id":"node/7396405042","name":"Paradero Camiones a La Joya / Tasqueña","mode":"bus_station"}},{"type":"Feature","geometry":{"type":"Point","coordinates":[-99.244,19.3181]},"properties":{"id":"node/12744899202","name":"Transportes Urbanos De Personas Ruta 112","mode":"bus_station"}},{"type":"Feature","geometry":{"type":"Point","coordinates":[-99.2342,19.2771]},"properties":{"id":"node/13037673452","name":"Pedregal de San Nicolás","mode":"station"}},{"type":"Feature","geometry":{"type":"Point","coordinates":[-99.2226,19.2741]},"properties":{"id":"node/13037673453","name":"Cultura Maya","mode":"station"}},{"type":"Feature","geometry":{"type":"Point","coordinates":[-99.2082,19.2821]},"properties":{"id":"node/13037673454","name":"Deportivo Independencia","mode":"station"}},{"type":"Feature","geometry":{"type":"Point","coordinates":[-99.1865,19.2807]},"properties":{"id":"node/13037673455","name":"CEFORMA","mode":"station"}},{"type":"Feature","geometry":{"type":"Point","coordinates":[-99.1847,19.2877]},"properties":{"id":"node/13037673456","name":"Mercado Hidalgo","mode":"station"}},{"type":"Feature","geometry":{"type":"Point","coordinates":[-99.1861,19.305]},"properties":{"id":"node/13037673457","name":"Perisur","mode":"station"}},{"type":"Feature","geometry":{"type":"Point","coordinates":[-99.1704,19.3119]},"properties":{"id":"node/13037673458","name":"Cantera","mode":"station"}},{"type":"Feature","geometry":{"type":"Point","coordinates":[-99.1699,19.2803]},"properties":{"id":"way/216720709","name":"","mode":"station"}},{"type":"Feature","geometry":{"type":"Point","coordinates":[-99.2343,19.2772]},"properties":{"id":"way/707984943","name":"Pedregal de San Nicolás","mode":"bus_station"}},{"type":"Feature","geometry":{"type":"Point","coordinates":[-99.2286,19.2828]},"properties":{"id":"way/1151270836","name":"Torres de Padierna","mode":"bus_station"}},{"type":"Feature","geometry":{"type":"Point","coordinates":[-99.169,19.2794]},"properties":{"id":"way/1153413941","name":"El Caminero","mode":"station"}},{"type":"Feature","geometry":{"type":"Point","coordinates":[-99.2456,19.3029]},"properties":{"id":"way/1425955916","name":"Base de camiones RTP","mode":"station"}},{"type":"Feature","geometry":{"type":"Point","coordinates":[-99.1431,19.3072]},"properties":{"id":"node/1130113572","name":"El Vergel","mode":"light_rail"}},{"type":"Feature","geometry":{"type":"Point","coordinates":[-99.1397,19.2827]},"properties":{"id":"node/1130113671","name":"Periférico","mode":"light_rail"}},{"type":"Feature","geometry":{"type":"Point","coordinates":[-99.1406,19.3126]},"properties":{"id":"node/1130113729","name":"Textitlan","mode":"light_rail"}},{"type":"Feature","geometry":{"type":"Point","coordinates":[-99.1468,19.2888]},"properties":{"id":"node/1130113733","name":"Xomali","mode":"light_rail"}},{"type":"Feature","geometry":{"type":"Point","coordinates":[-99.1186,19.2644]},"properties":{"id":"node/1130113753","name":"Huichapan","mode":"light_rail"}},{"type":"Feature","geometry":{"type":"Point","coordinates":[-99.1081,19.2595]},"properties":{"id":"node/1130113790","name":"Xochimilco","mode":"light_rail"}},{"type":"Feature","geometry":{"type":"Point","coordinates":[-99.1255,19.2679]},"properties":{"id":"node/1130113794","name":"La Noria","mode":"light_rail"}},{"type":"Feature","geometry":{"type":"Point","coordinates":[-99.1331,19.2795]},"properties":{"id":"node/1130113803","name":"Tepepan","mode":"light_rail"}},{"type":"Feature","geometry":{"type":"Point","coordinates":[-99.1113,19.2607]},"properties":{"id":"node/1130113836","name":"Francisco Goitia","mode":"light_rail"}},{"type":"Feature","geometry":{"type":"Point","coordinates":[-99.0591,19.3144]},"properties":{"id":"node/1862612887","name":"UACM San Lorenzo Tezonco","mode":"bus_station"}},{"type":"Feature","geometry":{"type":"Point","coordinates":[-99.1388,19.3179]},"properties":{"id":"node/3021967669","name":"Registro Federal","mode":"light_rail"}},{"type":"Feature","geometry":{"type":"Point","coordinates":[-99.104,19.2724]},"properties":{"id":"node/3245566874","name":"","mode":"station"}},{"type":"Feature","geometry":{"type":"Point","coordinates":[-99.1287,19.3062]},"properties":{"id":"node/4450379292","name":"Primera Plus Coapa","mode":"bus_station"}},{"type":"Feature","geometry":{"type":"Point","coordinates":[-99.1467,19.3004]},"properties":{"id":"node/4602692339","name":"CETRAM Huipulco","mode":"bus_station"}},{"type":"Feature","geometry":{"type":"Point","coordinates":[-99.0746,19.3177]},"properties":{"id":"node/5358301208","name":"Periférico Oriente","mode":"subway"}},{"type":"Feature","geometry":{"type":"Point","coordinates":[-99.1507,19.2976]},"properties":{"id":"node/6572510416","name":"Huipulco","mode":"light_rail"}},{"type":"Feature","geometry":{"type":"Point","coordinates":[-99.1434,19.1922]},"properties":{"id":"node/6629726694","name":"San Miguel Topilejo","mode":"station"}},{"type":"Feature","geometry":{"type":"Point","coordinates":[-99.0945,19.2499]},"properties":{"id":"node/6629893286","name":"Bosque de Nativitas","mode":"station"}},{"type":"Feature","geometry":{"type":"Point","coordinates":[-99.125,19.2492]},"properties":{"id":"node/6631951182","name":"Santiago Tepalcatlalpan","mode":"station"}},{"type":"Feature","geometry":{"type":"Point","coordinates":[-99.0957,19.1946]},"properties":{"id":"node/6654436027","name":"San Salvador Cuauhtenco","mode":"station"}},{"type":"Feature","geometry":{"type":"Point","coordinates":[-99.1205,19.2734]},"properties":{"id":"node/9840450429","name":"Preparatoria 1","mode":"bus_station"}},{"type":"Feature","geometry":{"type":"Point","coordinates":[-99.0652,19.3063]},"properties":{"id":"node/11059788206","name":"Tezonco","mode":"subway"}},{"type":"Feature","geometry":{"type":"Point","coordinates":[-99.0595,19.3043]},"properties":{"id":"node/11059788207","name":"Olivos","mode":"subway"}},{"type":"Feature","geometry":{"type":"Point","coordinates":[-99.147,19.3019]},"properties":{"id":"node/13829521246","name":"Estadio Banorte","mode":"light_rail"}},{"type":"Feature","geometry":{"type":"Point","coordinates":[-99.102,19.3075]},"properties":{"id":"node/13832917675","name":"UAM XOCHIMILCO","mode":"station"}},{"type":"Feature","geometry":{"type":"Point","coordinates":[-99.1105,19.3109]},"properties":{"id":"node/13833100635","name":"Bombas","mode":"station"}},{"type":"Feature","geometry":{"type":"Point","coordinates":[-99.1137,19.3009]},"properties":{"id":"node/13833100636","name":"Calzada del Hueso","mode":"station"}},{"type":"Feature","geometry":{"type":"Point","coordinates":[-99.1117,19.2604]},"properties":{"id":"way/217020914","name":"CETRAM Xochimilco","mode":"bus_station"}},{"type":"Feature","geometry":{"type":"Point","coordinates":[-99.1206,19.2734]},"properties":{"id":"way/940534522","name":"Preparatoria 1","mode":"bus_station"}},{"type":"Feature","geometry":{"type":"Point","coordinates":[-99.046,19.2999]},"properties":{"id":"way/1112062886","name":"Nopalera","mode":"station"}},{"type":"Feature","geometry":{"type":"Point","coordinates":[-99.1018,19.3075]},"properties":{"id":"way/1514251059","name":"UAM Xochimilco","mode":"station"}},{"type":"Feature","geometry":{"type":"Point","coordinates":[-99.024,19.2944]},"properties":{"id":"node/1991237943","name":"Tlaltenco","mode":"subway"}},{"type":"Feature","geometry":{"type":"Point","coordinates":[-99.0149,19.2864]},"properties":{"id":"node/2261315252","name":"CETRAM Tláhuac","mode":"bus_station"}},{"type":"Feature","geometry":{"type":"Point","coordinates":[-99.0457,19.3007]},"properties":{"id":"node/5916986326","name":"Parada de Moto Taxis Atlixco Volcanes","mode":"station"}},{"type":"Feature","geometry":{"type":"Point","coordinates":[-99.0232,19.1928]},"properties":{"id":"node/6629878061","name":"Villa Milpa Alta","mode":"station"}},{"type":"Feature","geometry":{"type":"Point","coordinates":[-99.0125,19.2557]},"properties":{"id":"node/6654380623","name":"Tulyehualco (Palmas)","mode":"station"}},{"type":"Feature","geometry":{"type":"Point","coordinates":[-98.9466,19.3137]},"properties":{"id":"node/10175195878","name":"Cuauhtémoc","mode":"bus_station"}},{"type":"Feature","geometry":{"type":"Point","coordinates":[-99.0142,19.2872]},"properties":{"id":"node/10175201660","name":"Metrobus Tláhuac","mode":"bus_station"}},{"type":"Feature","geometry":{"type":"Point","coordinates":[-99.0142,19.2861]},"properties":{"id":"node/11013265297","name":"Tlahuac","mode":"subway"}},{"type":"Feature","geometry":{"type":"Point","coordinates":[-99.0342,19.2967]},"properties":{"id":"node/11166740914","name":"Zapotitlán","mode":"subway"}},{"type":"Feature","geometry":{"type":"Point","coordinates":[-98.9465,19.3136]},"properties":{"id":"way/1389438708","name":"Cuauhtémoc","mode":"bus_station"}},{"type":"Feature","geometry":{"type":"Point","coordinates":[-99.275,19.3328]},"properties":{"id":"node/1506677286","name":"Terminal Ruta 117 San Bartolo Ameyalco","mode":"bus_station"}},{"type":"Feature","geometry":{"type":"Point","coordinates":[-99.2829,19.3254]},"properties":{"id":"node/3987191838","name":"Terminal Ruta 43 San Bartolo Ameyalco","mode":"bus_station"}},{"type":"Feature","geometry":{"type":"Point","coordinates":[-99.272,19.329]},"properties":{"id":"node/3987195170","name":"Terminal San Bartolo Ameyalco","mode":"bus_station"}},{"type":"Feature","geometry":{"type":"Point","coordinates":[-99.2629,19.3209]},"properties":{"id":"node/4272636397","name":"Terminal la cruz ruta 111","mode":"bus_station"}},{"type":"Feature","geometry":{"type":"Point","coordinates":[-99.2848,19.3792]},"properties":{"id":"node/6630289768","name":"La Navidad","mode":"station"}},{"type":"Feature","geometry":{"type":"Point","coordinates":[-99.282,19.3871]},"properties":{"id":"node/12531878534","name":"Ruta 004 Ramal Tacubaya","mode":"bus_station"}},{"type":"Feature","geometry":{"type":"Point","coordinates":[-99.2744,19.4522]},"properties":{"id":"node/12574189307","name":"Oficina De Ruta De Colecectivos Ruta 21","mode":"station"}},{"type":"Feature","geometry":{"type":"Point","coordinates":[-99.2918,19.4451]},"properties":{"id":"node/12585954886","name":"Auto Transportes El Capulin Ruta 58","mode":"bus_station"}},{"type":"Feature","geometry":{"type":"Point","coordinates":[-99.3491,19.3602]},"properties":{"id":"node/12750153990","name":"Autotransportes Monte De Las Cruces","mode":"bus_station"}},{"type":"Feature","geometry":{"type":"Point","coordinates":[-99.3262,19.3308]},"properties":{"id":"way/262581385","name":"","mode":"bus_station"}},{"type":"Feature","geometry":{"type":"Point","coordinates":[-99.2689,19.364]},"properties":{"id":"way/635410881","name":"Santa Fe","mode":"station"}},{"type":"Feature","geometry":{"type":"Point","coordinates":[-99.2917,19.3231]},"properties":{"id":"way/705662790","name":"Santa Rosa Xochiac","mode":"bus_station"}},{"type":"Feature","geometry":{"type":"Point","coordinates":[-99.2796,19.361]},"properties":{"id":"way/705676108","name":"Centro Comercial Santa Fe","mode":"bus_station"}},{"type":"Feature","geometry":{"type":"Point","coordinates":[-99.3417,19.3582]},"properties":{"id":"way/1360463329","name":"","mode":"station"}},{"type":"Feature","geometry":{"type":"Point","coordinates":[-99.2691,19.4457]},"properties":{"id":"way/1492959231","name":"Parque La Hormiga","mode":"station"}},{"type":"Feature","geometry":{"type":"Point","coordinates":[-99.2778,19.4477]},"properties":{"id":"way/1492959232","name":"Izcalli Chamapa","mode":"station"}},{"type":"Feature","geometry":{"type":"Point","coordinates":[-99.2619,19.4395]},"properties":{"id":"way/1492959233","name":"Benito Juárez","mode":"station"}},{"type":"Feature","geometry":{"type":"Point","coordinates":[-99.2712,19.4364]},"properties":{"id":"way/1492959234","name":"Lomas del Cadete","mode":"station"}},{"type":"Feature","geometry":{"type":"Point","coordinates":[-99.1758,19.3227]},"properties":{"id":"node/293215989","name":"Rutas de transporte interno UNAM","mode":"bus_station"}},{"type":"Feature","geometry":{"type":"Point","coordinates":[-99.1893,19.3616]},"properties":{"id":"node/308554084","name":"Barranca del Muerto","mode":"subway"}},{"type":"Feature","geometry":{"type":"Point","coordinates":[-99.1866,19.3845]},"properties":{"id":"node/308556308","name":"San Antonio","mode":"subway"}},{"type":"Feature","geometry":{"type":"Point","coordinates":[-99.1914,19.4118]},"properties":{"id":"node/308557541","name":"Constituyentes","mode":"subway"}},{"type":"Feature","geometry":{"type":"Point","coordinates":[-99.1923,19.425]},"properties":{"id":"node/308561119","name":"Auditorio","mode":"subway"}},{"type":"Feature","geometry":{"type":"Point","coordinates":[-99.1909,19.4335]},"properties":{"id":"node/308561120","name":"Polanco","mode":"subway"}},{"type":"Feature","geometry":{"type":"Point","coordinates":[-99.1883,19.3752]},"properties":{"id":"node/436878243","name":"Paradero Mixcoac","mode":"bus_station"}},{"type":"Feature","geometry":{"type":"Point","coordinates":[-99.1918,19.445]},"properties":{"id":"node/681448501","name":"San Joaquín","mode":"subway"}},{"type":"Feature","geometry":{"type":"Point","coordinates":[-99.1855,19.3915]},"properties":{"id":"node/681454741","name":"San Pedro de los Pinos","mode":"subway"}},{"type":"Feature","geometry":{"type":"Point","coordinates":[-99.1685,19.4059]},"properties":{"id":"node/842889550","name":"Chilpancingo","mode":"subway"}},{"type":"Feature","geometry":{"type":"Point","coordinates":[-99.1708,19.372]},"properties":{"id":"node/2081866443","name":"Hospital 20 de Noviembre","mode":"subway"}},{"type":"Feature","geometry":{"type":"Point","coordinates":[-99.1719,19.4492]},"properties":{"id":"node/2084929420","name":"Colegio Militar","mode":"subway"}},{"type":"Feature","geometry":{"type":"Point","coordinates":[-99.1788,19.406]},"properties":{"id":"node/2266164095","name":"Patriotismo","mode":"subway"}},{"type":"Feature","geometry":{"type":"Point","coordinates":[-99.1834,19.4402]},"properties":{"id":"node/4301483892","name":"Lago Alberto","mode":"bus_station"}},{"type":"Feature","geometry":{"type":"Point","coordinates":[-99.1901,19.3616]},"properties":{"id":"node/4646472861","name":"CETRAM Barranca del Muerto","mode":"bus_station"}},{"type":"Feature","geometry":{"type":"Point","coordinates":[-99.1706,19.422]},"properties":{"id":"node/4688809545","name":"Sevilla","mode":"subway"}},{"type":"Feature","geometry":{"type":"Point","coordinates":[-99.1643,19.4185]},"properties":{"id":"node/5116493367","name":"Insurgentes_1_7","mode":"bus_station"}},{"type":"Feature","geometry":{"type":"Point","coordinates":[-99.1643,19.4184]},"properties":{"id":"node/5116493368","name":"","mode":"bus_station"}},{"type":"Feature","geometry":{"type":"Point","coordinates":[-99.1957,19.3985]},"properties":{"id":"node/5133050723","name":"Terminal Poniente","mode":"bus_station"}},{"type":"Feature","geometry":{"type":"Point","coordinates":[-99.1709,19.3614]},"properties":{"id":"node/5335249518","name":"Coyoacán","mode":"subway"}},{"type":"Feature","geometry":{"type":"Point","coordinates":[-99.1751,19.3543]},"properties":{"id":"node/5335255558","name":"Viveros-Derechos Humanos","mode":"subway"}},{"type":"Feature","geometry":{"type":"Point","coordinates":[-99.1808,19.3462]},"properties":{"id":"node/5335259535","name":"Miguel Ángel de Quevedo","mode":"station"}},{"type":"Feature","geometry":{"type":"Point","coordinates":[-99.1771,19.3361]},"properties":{"id":"node/5335263290","name":"Copilco","mode":"subway"}},{"type":"Feature","geometry":{"type":"Point","coordinates":[-99.1739,19.3245]},"properties":{"id":"node/5335271955","name":"Universidad","mode":"subway"}},{"type":"Feature","geometry":{"type":"Point","coordinates":[-99.1648,19.3707]},"properties":{"id":"node/5335289466","name":"Zapata","mode":"subway"}},{"type":"Feature","geometry":{"type":"Point","coordinates":[-99.1595,19.3792]},"properties":{"id":"node/5335301483","name":"División del Norte","mode":"station"}},{"type":"Feature","geometry":{"type":"Point","coordinates":[-99.1572,19.3861]},"properties":{"id":"node/5335318010","name":"Eugenia","mode":"subway"}},{"type":"Feature","geometry":{"type":"Point","coordinates":[-99.1875,19.402]},"properties":{"id":"node/5335749332","name":"Tacubaya","mode":"subway"}},{"type":"Feature","geometry":{"type":"Point","coordinates":[-99.182,19.413]},"properties":{"id":"node/5335750526","name":"Juanacatlán","mode":"subway"}},{"type":"Feature","geometry":{"type":"Point","coordinates":[-99.1768,19.4207]},"properties":{"id":"node/5335762554","name":"Chapultepec","mode":"subway"}},{"type":"Feature","geometry":{"type":"Point","coordinates":[-99.1755,19.4529]},"properties":{"id":"node/5339541353","name":"Popotla","mode":"subway"}},{"type":"Feature","geometry":{"type":"Point","coordinates":[-99.1674,19.4446]},"properties":{"id":"node/5339546329","name":"Normal","mode":"subway"}},{"type":"Feature","geometry":{"type":"Point","coordinates":[-99.154,19.4391]},"properties":{"id":"node/5339546600","name":"Revolución","mode":"subway"}},{"type":"Feature","geometry":{"type":"Point","coordinates":[-99.1607,19.4419]},"properties":{"id":"node/5339549119","name":"San Cosme","mode":"subway"}},{"type":"Feature","geometry":{"type":"Point","coordinates":[-99.1552,19.4065]},"properties":{"id":"node/5383932843","name":"Centro Médico","mode":"subway"}},{"type":"Feature","geometry":{"type":"Point","coordinates":[-99.2015,19.4395]},"properties":{"id":"node/5495030521","name":"Ebus Antara","mode":"bus_station"}},{"type":"Feature","geometry":{"type":"Point","coordinates":[-99.1764,19.331]},"properties":{"id":"node/6458471887","name":"","mode":"bus_station"}},{"type":"Feature","geometry":{"type":"Point","coordinates":[-99.2289,19.3451]},"properties":{"id":"node/6630289767","name":"Río de Guadalupe","mode":"station"}},{"type":"Feature","geometry":{"type":"Point","coordinates":[-99.2443,19.3537]},"properties":{"id":"node/8207696794","name":"Tlacuitlapa (Puerta Grande)","mode":"bus_station"}},{"type":"Feature","geometry":{"type":"Point","coordinates":[-99.1533,19.4137]},"properties":{"id":"node/10171375840","name":"Hospital General","mode":"subway"}},{"type":"Feature","geometry":{"type":"Point","coordinates":[-99.1553,19.4394]},"properties":{"id":"node/10563569216","name":"Terminal Metro Revolucion","mode":"bus_station"}},{"type":"Feature","geometry":{"type":"Point","coordinates":[-99.156,19.396]},"properties":{"id":"node/10564807710","name":"Etiopía/Plaza de la Transparencia","mode":"subway"}},{"type":"Feature","geometry":{"type":"Point","coordinates":[-99.1633,19.4236]},"properties":{"id":"node/11323110136","name":"Insurgentes","mode":"subway"}},{"type":"Feature","geometry":{"type":"Point","coordinates":[-99.2522,19.4414]},"properties":{"id":"node/11477212878","name":"Estación Río Hondo","mode":"station"}},{"type":"Feature","geometry":{"type":"Point","coordinates":[-99.1685,19.4294]},"properties":{"id":"node/11493857845","name":"Terrapuerto El Ángel","mode":"bus_station"}},{"type":"Feature","geometry":{"type":"Point","coordinates":[-99.1688,19.4293]},"properties":{"id":"node/12437623202","name":"Terrapuerto El Ángel","mode":"bus_station"}},{"type":"Feature","geometry":{"type":"Point","coordinates":[-99.2446,19.3807]},"properties":{"id":"node/12540664399","name":"Transporte Colectivo Urbano Y Suburbano De Pasajeros En Autobuses De Ruta Fija","mode":"bus_station"}},{"type":"Feature","geometry":{"type":"Point","coordinates":[-99.1588,19.3706]},"properties":{"id":"node/12602265863","name":"Parque de los Venados","mode":"subway"}},{"type":"Feature","geometry":{"type":"Point","coordinates":[-99.1784,19.3736]},"properties":{"id":"node/12603540631","name":"Metro Insurgentes Sur","mode":"subway"}},{"type":"Feature","geometry":{"type":"Point","coordinates":[-99.1732,19.3241]},"properties":{"id":"node/13037673459","name":"Universidad","mode":"station"}},{"type":"Feature","geometry":{"type":"Point","coordinates":[-99.1546,19.4257]},"properties":{"id":"node/13096079164","name":"Cuauhtémoc","mode":"subway"}},{"type":"Feature","geometry":{"type":"Point","coordinates":[-99.1872,19.3761]},"properties":{"id":"way/30089614","name":"L7 - Metro Mixcoac","mode":"station"}},{"type":"Feature","geometry":{"type":"Point","coordinates":[-99.2002,19.3964]},"properties":{"id":"way/30178858","name":"Terminal Central de Autobuses del Poniente","mode":"bus_station"}},{"type":"Feature","geometry":{"type":"Point","coordinates":[-99.2004,19.3983]},"properties":{"id":"way/217419203","name":"Observatorio","mode":"subway"}},{"type":"Feature","geometry":{"type":"Point","coordinates":[-99.1881,19.4013]},"properties":{"id":"way/217420246","name":"CETRAM Tacubaya","mode":"bus_station"}},{"type":"Feature","geometry":{"type":"Point","coordinates":[-99.1758,19.4208]},"properties":{"id":"way/217420503","name":"Centro de Transferencia Modal Chapultepec","mode":"bus_station"}},{"type":"Feature","geometry":{"type":"Point","coordinates":[-99.1762,19.4221]},"properties":{"id":"way/217420504","name":"Centro de Transferencia Modal Chapultepec","mode":"bus_station"}},{"type":"Feature","geometry":{"type":"Point","coordinates":[-99.1739,19.3244]},"properties":{"id":"way/286724128","name":"Edificio estación Universidad","mode":"station"}},{"type":"Feature","geometry":{"type":"Point","coordinates":[-99.2364,19.3849]},"properties":{"id":"way/977916473","name":"Vasco de Quiroga","mode":"station"}},{"type":"Feature","geometry":{"type":"Point","coordinates":[-99.2489,19.3646]},"properties":{"id":"way/986068925","name":"Base Ruta 46","mode":"bus_station"}},{"type":"Feature","geometry":{"type":"Point","coordinates":[-99.1913,19.4131]},"properties":{"id":"way/1080401853","name":"Los Pinos / Constituyentes","mode":"station"}},{"type":"Feature","geometry":{"type":"Point","coordinates":[-99.201,19.4073]},"properties":{"id":"way/1080401854","name":"Panteón Dolores","mode":"station"}},{"type":"Feature","geometry":{"type":"Point","coordinates":[-99.1788,19.3743]},"properties":{"id":"way/1146838965","name":"Félix Cuevas","mode":"station"}},{"type":"Feature","geometry":{"type":"Point","coordinates":[-99.1878,19.4025]},"properties":{"id":"way/1258735833","name":"Tacubaya L1","mode":"subway"}},{"type":"Feature","geometry":{"type":"Point","coordinates":[-99.1879,19.4011]},"properties":{"id":"way/1258748282","name":"Tacubaya L9","mode":"subway"}},{"type":"Feature","geometry":{"type":"Point","coordinates":[-99.1545,19.4392]},"properties":{"id":"way/1258845242","name":"Revolución","mode":"subway"}},{"type":"Feature","geometry":{"type":"Point","coordinates":[-99.156,19.3959]},"properties":{"id":"way/1258850656","name":"Etiopía","mode":"subway"}},{"type":"Feature","geometry":{"type":"Point","coordinates":[-99.1594,19.3791]},"properties":{"id":"way/1258856099","name":"División del Norte","mode":"station"}},{"type":"Feature","geometry":{"type":"Point","coordinates":[-99.2318,19.3841]},"properties":{"id":"way/1315197090","name":"Vasco de Quiroga","mode":"station"}},{"type":"Feature","geometry":{"type":"Point","coordinates":[-99.1561,19.4066]},"properties":{"id":"way/1365082943","name":"Centro Médico L9","mode":"subway"}},{"type":"Feature","geometry":{"type":"Point","coordinates":[-99.1551,19.4072]},"properties":{"id":"way/1365082945","name":"Centro Médico L3","mode":"subway"}},{"type":"Feature","geometry":{"type":"Point","coordinates":[-99.1902,19.3437]},"properties":{"id":"way/1366469166","name":"CETRAM Doctor Gálvez","mode":"bus_station"}},{"type":"Feature","geometry":{"type":"Point","coordinates":[-99.1524,19.4463]},"properties":{"id":"way/1366670740","name":"Buenavista","mode":"subway"}},{"type":"Feature","geometry":{"type":"Point","coordinates":[-99.1547,19.4256]},"properties":{"id":"way/1366674400","name":"Cuauhtémoc","mode":"station"}},{"type":"Feature","geometry":{"type":"Point","coordinates":[-99.1865,19.3757]},"properties":{"id":"way/1366694389","name":"Mixcoac L12","mode":"subway"}},{"type":"Feature","geometry":{"type":"Point","coordinates":[-99.1645,19.3714]},"properties":{"id":"way/1366701357","name":"Zapata L3","mode":"station"}},{"type":"Feature","geometry":{"type":"Point","coordinates":[-99.1656,19.3708]},"properties":{"id":"way/1366701359","name":"Zapata L12","mode":"station"}},{"type":"Feature","geometry":{"type":"Point","coordinates":[-99.2534,19.4457]},"properties":{"id":"way/1370497267","name":"La Tolva","mode":"station"}},{"type":"Feature","geometry":{"type":"Point","coordinates":[-99.2008,19.3985]},"properties":{"id":"way/1375358305","name":"Observatorio","mode":"station"}},{"type":"Feature","geometry":{"type":"Point","coordinates":[-99.2492,19.45]},"properties":{"id":"way/1492959229","name":"Centenario","mode":"station"}},{"type":"Feature","geometry":{"type":"Point","coordinates":[-99.1868,19.4021]},"properties":{"id":"relation/17318665","name":"Tacubaya L7","mode":"subway"}},{"type":"Feature","geometry":{"type":"Point","coordinates":[-99.2318,19.3842]},"properties":{"id":"relation/18542280","name":"","mode":"station"}},{"type":"Feature","geometry":{"type":"Point","coordinates":[-99.1878,19.3762]},"properties":{"id":"relation/18815542","name":"Mixcoac L7","mode":"subway"}},{"type":"Feature","geometry":{"type":"Point","coordinates":[-99.2221,19.3968]},"properties":{"id":"relation/19353601","name":"PARCUR / Colegio de Arquitectos","mode":"station"}},{"type":"Feature","geometry":{"type":"Point","coordinates":[-99.229,19.3912]},"properties":{"id":"relation/19353602","name":"Cineteca Nacional / Bodega de Arte","mode":"station"}},{"type":"Feature","geometry":{"type":"Point","coordinates":[-99.213,19.3997]},"properties":{"id":"relation/19353603","name":"Charrería","mode":"station"}},{"type":"Feature","geometry":{"type":"Point","coordinates":[-99.145,19.3533]},"properties":{"id":"node/30384902","name":"General Anaya","mode":"subway"}},{"type":"Feature","geometry":{"type":"Point","coordinates":[-99.1416,19.3698]},"properties":{"id":"node/30385126","name":"Portales","mode":"subway"}},{"type":"Feature","geometry":{"type":"Point","coordinates":[-99.1402,19.3794]},"properties":{"id":"node/30385133","name":"Nativitas","mode":"subway"}},{"type":"Feature","geometry":{"type":"Point","coordinates":[-99.139,19.3876]},"properties":{"id":"node/30385139","name":"Villa de Cortés","mode":"subway"}},{"type":"Feature","geometry":{"type":"Point","coordinates":[-99.1378,19.3952]},"properties":{"id":"node/30385145","name":"Xola","mode":"subway"}},{"type":"Feature","geometry":{"type":"Point","coordinates":[-99.1369,19.4008]},"properties":{"id":"node/30385148","name":"Viaducto","mode":"subway"}},{"type":"Feature","geometry":{"type":"Point","coordinates":[-99.1444,19.4071]},"properties":{"id":"node/294082204","name":"Lázaro Cárdenas","mode":"subway"}},{"type":"Feature","geometry":{"type":"Point","coordinates":[-99.0903,19.4164]},"properties":{"id":"node/294086737","name":"Gómez Farías","mode":"subway"}},{"type":"Feature","geometry":{"type":"Point","coordinates":[-99.1421,19.4268]},"properties":{"id":"node/294088991","name":"Salto del Agua","mode":"subway"}},{"type":"Feature","geometry":{"type":"Point","coordinates":[-99.0836,19.4356]},"properties":{"id":"node/332582398","name":"Terminal 1","mode":"monorail"}},{"type":"Feature","geometry":{"type":"Point","coordinates":[-99.0637,19.3459]},"properties":{"id":"node/506035217","name":"Constitución de 1917","mode":"subway"}},{"type":"Feature","geometry":{"type":"Point","coordinates":[-99.0857,19.356]},"properties":{"id":"node/554750099","name":"Cerro de la Estrella","mode":"subway"}},{"type":"Feature","geometry":{"type":"Point","coordinates":[-99.0748,19.351]},"properties":{"id":"node/554754754","name":"UAM-I","mode":"subway"}},{"type":"Feature","geometry":{"type":"Point","coordinates":[-99.1095,19.3792]},"properties":{"id":"node/555064969","name":"Apatlaco","mode":"subway"}},{"type":"Feature","geometry":{"type":"Point","coordinates":[-99.112,19.3881]},"properties":{"id":"node/555065028","name":"Iztacalco","mode":"subway"}},{"type":"Feature","geometry":{"type":"Point","coordinates":[-99.1095,19.3649]},"properties":{"id":"node/555066276","name":"Escuadrón 201","mode":"subway"}},{"type":"Feature","geometry":{"type":"Point","coordinates":[-99.1077,19.3733]},"properties":{"id":"node/555066702","name":"Aculco","mode":"subway"}},{"type":"Feature","geometry":{"type":"Point","coordinates":[-99.1126,19.4083]},"properties":{"id":"node/555069072","name":"Mixiuhca","mode":"subway"}},{"type":"Feature","geometry":{"type":"Point","coordinates":[-99.1263,19.4067]},"properties":{"id":"node/555079051","name":"La Viga","mode":"subway"}},{"type":"Feature","geometry":{"type":"Point","coordinates":[-99.144,19.4132]},"properties":{"id":"node/555079073","name":"Obrera","mode":"subway"}},{"type":"Feature","geometry":{"type":"Point","coordinates":[-99.1432,19.4214]},"properties":{"id":"node/555079083","name":"Doctores","mode":"subway"}},{"type":"Feature","geometry":{"type":"Point","coordinates":[-99.1413,19.4313]},"properties":{"id":"node/555081970","name":"San Juan de Letrán","mode":"subway"}},{"type":"Feature","geometry":{"type":"Point","coordinates":[-99.0789,19.421]},"properties":{"id":"node/1111845446","name":"Terminal 2","mode":"monorail"}},{"type":"Feature","geometry":{"type":"Point","coordinates":[-99.1405,19.3437]},"properties":{"id":"node/1130113868","name":"Tasqueña","mode":"light_rail"}},{"type":"Feature","geometry":{"type":"Point","coordinates":[-99.0594,19.3988]},"properties":{"id":"node/1155521581","name":"Canal de San Juan","mode":"subway"}},{"type":"Feature","geometry":{"type":"Point","coordinates":[-99.0695,19.4046]},"properties":{"id":"node/1155521678","name":"Agrícola Oriental","mode":"subway"}},{"type":"Feature","geometry":{"type":"Point","coordinates":[-99.0963,19.4199]},"properties":{"id":"node/1155638742","name":"Boulevard Puerto Aéreo","mode":"station"}},{"type":"Feature","geometry":{"type":"Point","coordinates":[-99.0827,19.4121]},"properties":{"id":"node/1155638781","name":"Zaragoza","mode":"subway"}},{"type":"Feature","geometry":{"type":"Point","coordinates":[-99.1255,19.4255]},"properties":{"id":"node/1155680835","name":"Merced","mode":"subway"}},{"type":"Feature","geometry":{"type":"Point","coordinates":[-99.1378,19.4264]},"properties":{"id":"node/1158001795","name":"Isabel la Católica","mode":"subway"}},{"type":"Feature","geometry":{"type":"Point","coordinates":[-99.1515,19.3614]},"properties":{"id":"node/2081866441","name":"Eje Central","mode":"subway"}},{"type":"Feature","geometry":{"type":"Point","coordinates":[-99.0957,19.3222]},"properties":{"id":"node/2081866445","name":"Lomas Estrella","mode":"subway"}},{"type":"Feature","geometry":{"type":"Point","coordinates":[-99.0859,19.3205]},"properties":{"id":"node/2081866446","name":"Calle 11","mode":"subway"}},{"type":"Feature","geometry":{"type":"Point","coordinates":[-99.1227,19.3577]},"properties":{"id":"node/2081866456","name":"Mexicaltzingo","mode":"subway"}},{"type":"Feature","geometry":{"type":"Point","coordinates":[-99.1089,19.3369]},"properties":{"id":"node/2081866461","name":"Culhuacán","mode":"subway"}},{"type":"Feature","geometry":{"type":"Point","coordinates":[-99.1161,19.4488]},"properties":{"id":"node/2160084598","name":"Canal del Norte","mode":"subway"}},{"type":"Feature","geometry":{"type":"Point","coordinates":[-99.1194,19.4288]},"properties":{"id":"node/2266125571","name":"Candelaria L4","mode":"subway"}},{"type":"Feature","geometry":{"type":"Point","coordinates":[-99.1205,19.4216]},"properties":{"id":"node/2266125613","name":"Fray Servando","mode":"subway"}},{"type":"Feature","geometry":{"type":"Point","coordinates":[-99.1217,19.4109]},"properties":{"id":"node/2266125668","name":"Jamaica","mode":"subway"}},{"type":"Feature","geometry":{"type":"Point","coordinates":[-99.1044,19.3281]},"properties":{"id":"node/2663332312","name":"San Andrés Tomatlán","mode":"subway"}},{"type":"Feature","geometry":{"type":"Point","coordinates":[-99.1434,19.3408]},"properties":{"id":"node/3016464458","name":"Las Torres","mode":"light_rail"}},{"type":"Feature","geometry":{"type":"Point","coordinates":[-99.1419,19.3358]},"properties":{"id":"node/3016544532","name":"Ciudad Jardín","mode":"light_rail"}},{"type":"Feature","geometry":{"type":"Point","coordinates":[-99.1406,19.3317]},"properties":{"id":"node/3021939899","name":"La Virgen","mode":"light_rail"}},{"type":"Feature","geometry":{"type":"Point","coordinates":[-99.1393,19.3275]},"properties":{"id":"node/3021948067","name":"Xotepingo","mode":"light_rail"}},{"type":"Feature","geometry":{"type":"Point","coordinates":[-99.1382,19.3238]},"properties":{"id":"node/3021958260","name":"Nezahualpilli","mode":"light_rail"}},{"type":"Feature","geometry":{"type":"Point","coordinates":[-99.0785,19.421]},"properties":{"id":"node/3041962655","name":"Terminal 2 Autobuses","mode":"bus_station"}},{"type":"Feature","geometry":{"type":"Point","coordinates":[-99.0814,19.4369]},"properties":{"id":"node/3041984556","name":"Terminal 1 Autobuses","mode":"bus_station"}},{"type":"Feature","geometry":{"type":"Point","coordinates":[-99.1397,19.3438]},"properties":{"id":"node/3649087197","name":"Tasqueña","mode":"subway"}},{"type":"Feature","geometry":{"type":"Point","coordinates":[-99.1135,19.3983]},"properties":{"id":"node/3649370809","name":"Coyuya","mode":"subway"}},{"type":"Feature","geometry":{"type":"Point","coordinates":[-99.0936,19.3577]},"properties":{"id":"node/3692692973","name":"Iztapalapa","mode":"subway"}},{"type":"Feature","geometry":{"type":"Point","coordinates":[-99.1152,19.4312]},"properties":{"id":"node/4208310089","name":"San Lázaro","mode":"bus_station"}},{"type":"Feature","geometry":{"type":"Point","coordinates":[-99.1153,19.4304]},"properties":{"id":"node/4208310090","name":"San Lázaro","mode":"bus_station"}},{"type":"Feature","geometry":{"type":"Point","coordinates":[-99.1144,19.4372]},"properties":{"id":"node/4213178089","name":"Archivo General de la Nación","mode":"bus_station"}},{"type":"Feature","geometry":{"type":"Point","coordinates":[-99.1523,19.4448]},"properties":{"id":"node/4213178091","name":"Metrobús Linea 4","mode":"bus_station"}},{"type":"Feature","geometry":{"type":"Point","coordinates":[-99.0485,19.4536]},"properties":{"id":"node/4360235753","name":"Parada Cuchilla","mode":"bus_station"}},{"type":"Feature","geometry":{"type":"Point","coordinates":[-99.0589,19.3979]},"properties":{"id":"node/4741634504","name":"Canal de San Juan - Delegacion Iztacalco","mode":"bus_station"}},{"type":"Feature","geometry":{"type":"Point","coordinates":[-99.1444,19.343]},"properties":{"id":"node/4798921626","name":"","mode":"bus_station"}},{"type":"Feature","geometry":{"type":"Point","coordinates":[-99.1098,19.4265]},"properties":{"id":"node/4923087436","name":"Moctezuma","mode":"subway"}},{"type":"Feature","geometry":{"type":"Point","coordinates":[-99.1497,19.4273]},"properties":{"id":"node/4998777908","name":"Paradero RTP Balderas","mode":"bus_station"}},{"type":"Feature","geometry":{"type":"Point","coordinates":[-99.1452,19.4449]},"properties":{"id":"node/5335244209","name":"Guerrero","mode":"subway"}},{"type":"Feature","geometry":{"type":"Point","coordinates":[-99.1503,19.4194]},"properties":{"id":"node/5335683975","name":"Niños Héroes","mode":"subway"}},{"type":"Feature","geometry":{"type":"Point","coordinates":[-99.149,19.4271]},"properties":{"id":"node/5335688062","name":"Balderas","mode":"subway"}},{"type":"Feature","geometry":{"type":"Point","coordinates":[-99.1432,19.455]},"properties":{"id":"node/5335704171","name":"Tlatelolco","mode":"subway"}},{"type":"Feature","geometry":{"type":"Point","coordinates":[-99.133,19.4259]},"properties":{"id":"node/5335789644","name":"Pino Suárez","mode":"subway"}},{"type":"Feature","geometry":{"type":"Point","coordinates":[-99.1209,19.4296]},"properties":{"id":"node/5337579689","name":"Candelaria L1","mode":"subway"}},{"type":"Feature","geometry":{"type":"Point","coordinates":[-99.1024,19.4231]},"properties":{"id":"node/5337596249","name":"Balbuena","mode":"subway"}},{"type":"Feature","geometry":{"type":"Point","coordinates":[-99.1322,19.4325]},"properties":{"id":"node/5339555634","name":"Zócalo/Tenochtitlan","mode":"subway"}},{"type":"Feature","geometry":{"type":"Point","coordinates":[-99.1345,19.416]},"properties":{"id":"node/5339567361","name":"San Antonio Abad","mode":"subway"}},{"type":"Feature","geometry":{"type":"Point","coordinates":[-99.1355,19.4091]},"properties":{"id":"node/5339640805","name":"Chabacano","mode":"subway"}},{"type":"Feature","geometry":{"type":"Point","coordinates":[-99.0745,19.4152]},"properties":{"id":"node/5358430107","name":"Pantitlán","mode":"subway"}},{"type":"Feature","geometry":{"type":"Point","coordinates":[-99.1141,19.43]},"properties":{"id":"node/5358443126","name":"San Lázaro","mode":"subway"}},{"type":"Feature","geometry":{"type":"Point","coordinates":[-99.1388,19.4439]},"properties":{"id":"node/5358459287","name":"Garibaldi-Lagunilla","mode":"subway"}},{"type":"Feature","geometry":{"type":"Point","coordinates":[-99.0872,19.4457]},"properties":{"id":"node/5358462886","name":"Oceanía","mode":"subway"}},{"type":"Feature","geometry":{"type":"Point","coordinates":[-99.1215,19.4037]},"properties":{"id":"node/5383897872","name":"Santa Anita","mode":"subway"}},{"type":"Feature","geometry":{"type":"Point","coordinates":[-99.119,19.4397]},"properties":{"id":"node/5383914298","name":"Morelos","mode":"subway"}},{"type":"Feature","geometry":{"type":"Point","coordinates":[-99.0841,19.4129]},"properties":{"id":"node/5796761142","name":"Terminal CETRAM Zaragoza","mode":"bus_station"}},{"type":"Feature","geometry":{"type":"Point","coordinates":[-99.1149,19.4206]},"properties":{"id":"node/5805383962","name":"Parada de Microbuses","mode":"station"}},{"type":"Feature","geometry":{"type":"Point","coordinates":[-99.0844,19.4356]},"properties":{"id":"node/6264624190","name":"Terminal ADO","mode":"bus_station"}},{"type":"Feature","geometry":{"type":"Point","coordinates":[-99.0625,19.4312]},"properties":{"id":"node/6629824498","name":"Arenal 4° Sección","mode":"bus_station"}},{"type":"Feature","geometry":{"type":"Point","coordinates":[-99.0625,19.3449]},"properties":{"id":"node/6868354391","name":"Constitución de 1917","mode":"station"}},{"type":"Feature","geometry":{"type":"Point","coordinates":[-99.152,19.4474]},"properties":{"id":"node/6949058012","name":"Buenavista","mode":"station"}},{"type":"Feature","geometry":{"type":"Point","coordinates":[-99.1013,19.3555]},"properties":{"id":"node/7364482552","name":"Atlalilco","mode":"subway"}},{"type":"Feature","geometry":{"type":"Point","coordinates":[-99.0907,19.4171]},"properties":{"id":"node/7526506301","name":"Villas de San Martín","mode":"bus_station"}},{"type":"Feature","geometry":{"type":"Point","coordinates":[-99.1135,19.3994]},"properties":{"id":"node/8750437785","name":"Metro Coyuya","mode":"bus_station"}},{"type":"Feature","geometry":{"type":"Point","coordinates":[-99.1114,19.4257]},"properties":{"id":"node/8769299185","name":"Moctezuma","mode":"bus_station"}},{"type":"Feature","geometry":{"type":"Point","coordinates":[-99.142,19.3614]},"properties":{"id":"node/10002684297","name":"Iztapalapa Progresista UAMI","mode":"bus_station"}},{"type":"Feature","geometry":{"type":"Point","coordinates":[-99.1371,19.4356]},"properties":{"id":"node/12307021668","name":"Allende","mode":"subway"}},{"type":"Feature","geometry":{"type":"Point","coordinates":[-99.1406,19.4362]},"properties":{"id":"node/12526124489","name":"Bellas Artes","mode":"subway"}},{"type":"Feature","geometry":{"type":"Point","coordinates":[-99.1219,19.4094]},"properties":{"id":"node/12662561163","name":"Jamaica","mode":"subway"}},{"type":"Feature","geometry":{"type":"Point","coordinates":[-99.1432,19.3601]},"properties":{"id":"node/12679525779","name":"Ermita","mode":"subway"}},{"type":"Feature","geometry":{"type":"Point","coordinates":[-99.1467,19.4374]},"properties":{"id":"node/12736564590","name":"Hidalgo","mode":"subway"}},{"type":"Feature","geometry":{"type":"Point","coordinates":[-99.0792,19.4511]},"properties":{"id":"node/13089350845","name":"Deportivo Oceanía","mode":"subway"}},{"type":"Feature","geometry":{"type":"Point","coordinates":[-99.0825,19.4072]},"properties":{"id":"node/13092458094","name":"Puebla","mode":"subway"}},{"type":"Feature","geometry":{"type":"Point","coordinates":[-99.0913,19.4085]},"properties":{"id":"node/13092458095","name":"Ciudad Deportiva","mode":"subway"}},{"type":"Feature","geometry":{"type":"Point","coordinates":[-99.1031,19.4086]},"properties":{"id":"node/13092458096","name":"Velódromo","mode":"subway"}},{"type":"Feature","geometry":{"type":"Point","coordinates":[-99.0723,19.4154]},"properties":{"id":"node/13092458099","name":"Pantitlán","mode":"subway"}},{"type":"Feature","geometry":{"type":"Point","coordinates":[-99.0719,19.4153]},"properties":{"id":"node/13092458100","name":"Pantitlán","mode":"subway"}},{"type":"Feature","geometry":{"type":"Point","coordinates":[-99.0944,19.4408]},"properties":{"id":"node/13092535103","name":"Romero Rubio","mode":"subway"}},{"type":"Feature","geometry":{"type":"Point","coordinates":[-99.1037,19.4366]},"properties":{"id":"node/13092535120","name":"Ricardo Flores Magón","mode":"subway"}},{"type":"Feature","geometry":{"type":"Point","coordinates":[-99.1242,19.4428]},"properties":{"id":"node/13094174901","name":"Tepito","mode":"subway"}},{"type":"Feature","geometry":{"type":"Point","coordinates":[-99.1318,19.4433]},"properties":{"id":"node/13094174905","name":"Lagunilla","mode":"subway"}},{"type":"Feature","geometry":{"type":"Point","coordinates":[-99.088,19.4243]},"properties":{"id":"node/13094516124","name":"Hangares","mode":"subway"}},{"type":"Feature","geometry":{"type":"Point","coordinates":[-99.0883,19.434]},"properties":{"id":"node/13094516125","name":"Terminal Aérea","mode":"subway"}},{"type":"Feature","geometry":{"type":"Point","coordinates":[-99.0867,19.4447]},"properties":{"id":"node/13094516128","name":"Oceanía","mode":"subway"}},{"type":"Feature","geometry":{"type":"Point","coordinates":[-99.0962,19.4513]},"properties":{"id":"node/13094516129","name":"Aragón","mode":"subway"}},{"type":"Feature","geometry":{"type":"Point","coordinates":[-99.1135,19.4551]},"properties":{"id":"node/13094535905","name":"Consulado","mode":"subway"}},{"type":"Feature","geometry":{"type":"Point","coordinates":[-99.1053,19.4514]},"properties":{"id":"node/13094535910","name":"Eduardo Molina","mode":"subway"}},{"type":"Feature","geometry":{"type":"Point","coordinates":[-99.0748,19.4163]},"properties":{"id":"node/13099792390","name":"Pantitlán","mode":"subway"}},{"type":"Feature","geometry":{"type":"Point","coordinates":[-99.1524,19.4496]},"properties":{"id":"node/13918232501","name":"Flixbus Fórum Buenavista","mode":"bus_station"}},{"type":"Feature","geometry":{"type":"Point","coordinates":[-99.0736,19.4165]},"properties":{"id":"way/43705661","name":"CETRAM Pantitlán","mode":"bus_station"}},{"type":"Feature","geometry":{"type":"Point","coordinates":[-99.1399,19.3437]},"properties":{"id":"way/96878482","name":"Taxqueña","mode":"station"}},{"type":"Feature","geometry":{"type":"Point","coordinates":[-99.1211,19.4037]},"properties":{"id":"way/217335952","name":"Cetram Santa Anita","mode":"bus_station"}},{"type":"Feature","geometry":{"type":"Point","coordinates":[-99.0957,19.4196]},"properties":{"id":"way/217424441","name":"CETRAM Boulevard Puerto Aéreo","mode":"bus_station"}},{"type":"Feature","geometry":{"type":"Point","coordinates":[-99.0707,19.4182]},"properties":{"id":"way/217425675","name":"CETRAM Pantitlán","mode":"bus_station"}},{"type":"Feature","geometry":{"type":"Point","coordinates":[-99.0711,19.4172]},"properties":{"id":"way/217425676","name":"CETRAM Pantitlán","mode":"bus_station"}},{"type":"Feature","geometry":{"type":"Point","coordinates":[-99.1144,19.4296]},"properties":{"id":"way/217726509","name":"CETRAM San Lázaro","mode":"bus_station"}},{"type":"Feature","geometry":{"type":"Point","coordinates":[-99.0963,19.3723]},"properties":{"id":"way/217901329","name":"CETRAM Central de Abasto","mode":"bus_station"}},{"type":"Feature","geometry":{"type":"Point","coordinates":[-99.0723,19.4169]},"properties":{"id":"way/293610446","name":"Pantitlán","mode":"bus_station"}},{"type":"Feature","geometry":{"type":"Point","coordinates":[-99.0639,19.3454]},"properties":{"id":"way/454335229","name":"CETRAM Constitución de 1917","mode":"bus_station"}},{"type":"Feature","geometry":{"type":"Point","coordinates":[-99.0937,19.3581]},"properties":{"id":"way/457304450","name":"Paradero Metro Iztapalapa","mode":"bus_station"}},{"type":"Feature","geometry":{"type":"Point","coordinates":[-99.1392,19.3426]},"properties":{"id":"way/523526082","name":"Terminal Central del Sur","mode":"bus_station"}},{"type":"Feature","geometry":{"type":"Point","coordinates":[-99.1429,19.362]},"properties":{"id":"way/526205288","name":"Ermita L2","mode":"subway"}},{"type":"Feature","geometry":{"type":"Point","coordinates":[-99.0907,19.4174]},"properties":{"id":"way/620597747","name":"Cupido Chalco","mode":"bus_station"}},{"type":"Feature","geometry":{"type":"Point","coordinates":[-99.1379,19.345]},"properties":{"id":"way/690851588","name":"ADO Ejecutiva del sur","mode":"bus_station"}},{"type":"Feature","geometry":{"type":"Point","coordinates":[-99.1144,19.4308]},"properties":{"id":"way/1034666607","name":"CETRAM San Lázaro","mode":"bus_station"}},{"type":"Feature","geometry":{"type":"Point","coordinates":[-99.0625,19.3449]},"properties":{"id":"way/1080843866","name":"","mode":"station"}},{"type":"Feature","geometry":{"type":"Point","coordinates":[-99.0845,19.4355]},"properties":{"id":"way/1132106595","name":"","mode":"bus_station"}},{"type":"Feature","geometry":{"type":"Point","coordinates":[-99.12,19.4292]},"properties":{"id":"way/1178449762","name":"Candelaria","mode":"subway"}},{"type":"Feature","geometry":{"type":"Point","coordinates":[-99.0471,19.3907]},"properties":{"id":"way/1184781819","name":"CETRAM Tepalcates","mode":"bus_station"}},{"type":"Feature","geometry":{"type":"Point","coordinates":[-99.0831,19.3722]},"properties":{"id":"way/1199574972","name":"CETRAM Central de Abasto","mode":"bus_station"}},{"type":"Feature","geometry":{"type":"Point","coordinates":[-99.1247,19.4254]},"properties":{"id":"way/1258708454","name":"La Merced","mode":"subway"}},{"type":"Feature","geometry":{"type":"Point","coordinates":[-99.1196,19.4393]},"properties":{"id":"way/1258721563","name":"Morelos LB","mode":"subway"}},{"type":"Feature","geometry":{"type":"Point","coordinates":[-99.1142,19.43]},"properties":{"id":"way/1258849166","name":"San Lázaro L1","mode":"subway"}},{"type":"Feature","geometry":{"type":"Point","coordinates":[-99.1476,19.4335]},"properties":{"id":"way/1258852271","name":"Juárez","mode":"subway"}},{"type":"Feature","geometry":{"type":"Point","coordinates":[-99.0463,19.3913]},"properties":{"id":"way/1296140498","name":"Tepalcates","mode":"subway"}},{"type":"Feature","geometry":{"type":"Point","coordinates":[-99.1432,19.4551]},"properties":{"id":"way/1298647771","name":"Tlatelolco","mode":"subway"}},{"type":"Feature","geometry":{"type":"Point","coordinates":[-99.1013,19.3559]},"properties":{"id":"way/1298653807","name":"Atlalilco L8","mode":"station"}},{"type":"Feature","geometry":{"type":"Point","coordinates":[-99.1041,19.3542]},"properties":{"id":"way/1298653808","name":"Atlalilco L12","mode":"station"}},{"type":"Feature","geometry":{"type":"Point","coordinates":[-99.1342,19.4087]},"properties":{"id":"way/1302146391","name":"Chabacano L9","mode":"subway"}},{"type":"Feature","geometry":{"type":"Point","coordinates":[-99.1338,19.4101]},"properties":{"id":"way/1302146394","name":"Chabacano L8","mode":"station"}},{"type":"Feature","geometry":{"type":"Point","coordinates":[-99.0735,19.3635]},"properties":{"id":"way/1307839701","name":"","mode":"bus_station"}},{"type":"Feature","geometry":{"type":"Point","coordinates":[-99.1396,19.3429]},"properties":{"id":"way/1322433797","name":"Tasqueña","mode":"bus_station"}},{"type":"Feature","geometry":{"type":"Point","coordinates":[-99.1437,19.4268]},"properties":{"id":"way/1366663086","name":"Salto del Agua L1","mode":"subway"}},{"type":"Feature","geometry":{"type":"Point","coordinates":[-99.1424,19.4275]},"properties":{"id":"way/1366663087","name":"Salto del Agua L8","mode":"subway"}},{"type":"Feature","geometry":{"type":"Point","coordinates":[-99.142,19.3604]},"properties":{"id":"way/1367187879","name":"","mode":"station"}},{"type":"Feature","geometry":{"type":"Point","coordinates":[-99.1486,19.3428]},"properties":{"id":"way/1426127167","name":"División del Norte","mode":"station"}},{"type":"Feature","geometry":{"type":"Point","coordinates":[-99.1399,19.3885]},"properties":{"id":"way/1426931408","name":"Villa de Cortés","mode":"bus_station"}},{"type":"Feature","geometry":{"type":"Point","coordinates":[-99.1513,19.4455]},"properties":{"id":"way/1429392074","name":"CETRAM Buenavista","mode":"bus_station"}},{"type":"Feature","geometry":{"type":"Point","coordinates":[-99.1347,19.4161]},"properties":{"id":"way/1459979371","name":"San Antonio Abad","mode":"subway"}},{"type":"Feature","geometry":{"type":"Point","coordinates":[-99.1123,19.4301]},"properties":{"id":"relation/20426243","name":"Terminal de Autobuses de Pasajeros Oriente (TAPO)","mode":"bus_station"}},{"type":"Feature","geometry":{"type":"Point","coordinates":[-98.9952,19.3603]},"properties":{"id":"node/1149526719","name":"Santa Marta","mode":"subway"}},{"type":"Feature","geometry":{"type":"Point","coordinates":[-98.9769,19.359]},"properties":{"id":"node/1149526748","name":"Los Reyes","mode":"subway"}},{"type":"Feature","geometry":{"type":"Point","coordinates":[-98.9609,19.3505]},"properties":{"id":"node/1149526802","name":"La Paz","mode":"subway"}},{"type":"Feature","geometry":{"type":"Point","coordinates":[-99.017,19.3733]},"properties":{"id":"node/1155147125","name":"Peñón Viejo","mode":"subway"}},{"type":"Feature","geometry":{"type":"Point","coordinates":[-99.0356,19.3851]},"properties":{"id":"node/1155147244","name":"Guelatao","mode":"subway"}},{"type":"Feature","geometry":{"type":"Point","coordinates":[-99.0073,19.3652]},"properties":{"id":"node/3501537152","name":"ADO Santa Martha Acatitla","mode":"bus_station"}},{"type":"Feature","geometry":{"type":"Point","coordinates":[-99.0056,19.3647]},"properties":{"id":"node/3650765703","name":"Acatitla","mode":"subway"}},{"type":"Feature","geometry":{"type":"Point","coordinates":[-99.0052,19.3635]},"properties":{"id":"node/5417632623","name":"Autobuses fletes y pasajes fipsa","mode":"bus_station"}},{"type":"Feature","geometry":{"type":"Point","coordinates":[-98.963,19.3807]},"properties":{"id":"node/5761145758","name":"Base Saltillo - Pantitlan","mode":"bus_station"}},{"type":"Feature","geometry":{"type":"Point","coordinates":[-98.9607,19.3846]},"properties":{"id":"node/5761167711","name":"Base Coahuila - Pantitlan","mode":"bus_station"}},{"type":"Feature","geometry":{"type":"Point","coordinates":[-99.0241,19.3655]},"properties":{"id":"node/6629720940","name":"Ejército de Oriente","mode":"bus_station"}},{"type":"Feature","geometry":{"type":"Point","coordinates":[-98.9591,19.3215]},"properties":{"id":"node/6630285603","name":"Santa Catarina","mode":"bus_station"}},{"type":"Feature","geometry":{"type":"Point","coordinates":[-98.9893,19.3371]},"properties":{"id":"node/6639564962","name":"San Miguel Teotongo (Avisadero)","mode":"bus_station"}},{"type":"Feature","geometry":{"type":"Point","coordinates":[-99.0287,19.3277]},"properties":{"id":"node/6639571376","name":"Colonia Buenavista","mode":"bus_station"}},{"type":"Feature","geometry":{"type":"Point","coordinates":[-99.0033,19.3324]},"properties":{"id":"node/6639575803","name":"Ampliación Santiago","mode":"bus_station"}},{"type":"Feature","geometry":{"type":"Point","coordinates":[-99.0253,19.3315]},"properties":{"id":"node/6639624772","name":"Palmitas","mode":"bus_station"}},{"type":"Feature","geometry":{"type":"Point","coordinates":[-98.9901,19.3476]},"properties":{"id":"node/6642039031","name":"San Miguel Teotongo (Torres)","mode":"bus_station"}},{"type":"Feature","geometry":{"type":"Point","coordinates":[-98.9779,19.3259]},"properties":{"id":"node/6653579066","name":"Campestre Potrero","mode":"station"}},{"type":"Feature","geometry":{"type":"Point","coordinates":[-99.0435,19.3278]},"properties":{"id":"node/6868354392","name":"Quetzalcóatl","mode":"station"}},{"type":"Feature","geometry":{"type":"Point","coordinates":[-99.0308,19.3318]},"properties":{"id":"node/6868354393","name":"Las Torres Buenavista","mode":"station"}},{"type":"Feature","geometry":{"type":"Point","coordinates":[-99.0081,19.3409]},"properties":{"id":"node/6868354394","name":"Lomas De La Estancia","mode":"station"}},{"type":"Feature","geometry":{"type":"Point","coordinates":[-98.9896,19.3436]},"properties":{"id":"node/6868354396","name":"San Miguel Teotongo","mode":"station"}},{"type":"Feature","geometry":{"type":"Point","coordinates":[-98.994,19.3596]},"properties":{"id":"node/6868354397","name":"Santa Marta","mode":"station"}},{"type":"Feature","geometry":{"type":"Point","coordinates":[-99.0379,19.3823]},"properties":{"id":"node/8020642276","name":"","mode":"bus_station"}},{"type":"Feature","geometry":{"type":"Point","coordinates":[-99.0363,19.371]},"properties":{"id":"node/8189762229","name":"Parada del Pumabús","mode":"bus_station"}},{"type":"Feature","geometry":{"type":"Point","coordinates":[-99.0069,19.3945]},"properties":{"id":"node/8433442146","name":"Autobuses Yosondua","mode":"bus_station"}},{"type":"Feature","geometry":{"type":"Point","coordinates":[-99.0093,19.41]},"properties":{"id":"node/8433462588","name":"Terminal de autobuses AMAO","mode":"bus_station"}},{"type":"Feature","geometry":{"type":"Point","coordinates":[-99.0189,19.3361]},"properties":{"id":"node/8932134798","name":"Xalpa","mode":"station"}},{"type":"Feature","geometry":{"type":"Point","coordinates":[-99.019,19.3362]},"properties":{"id":"node/8932134801","name":"Xalpa","mode":"station"}},{"type":"Feature","geometry":{"type":"Point","coordinates":[-98.9759,19.3394]},"properties":{"id":"node/10175195874","name":"La Virgen","mode":"bus_station"}},{"type":"Feature","geometry":{"type":"Point","coordinates":[-98.9947,19.4058]},"properties":{"id":"node/10650980187","name":"Base Toreo- Pantitlan","mode":"station"}},{"type":"Feature","geometry":{"type":"Point","coordinates":[-98.9875,19.3519]},"properties":{"id":"node/12852049416","name":"Teotongo","mode":"bus_station"}},{"type":"Feature","geometry":{"type":"Point","coordinates":[-98.9632,19.3279]},"properties":{"id":"node/12852049417","name":"Xico","mode":"bus_station"}},{"type":"Feature","geometry":{"type":"Point","coordinates":[-98.9567,19.3222]},"properties":{"id":"node/12861870955","name":"Parque de la Mujer","mode":"bus_station"}},{"type":"Feature","geometry":{"type":"Point","coordinates":[-98.9602,19.3505]},"properties":{"id":"node/13555578357","name":"La Paz","mode":"light_rail"}},{"type":"Feature","geometry":{"type":"Point","coordinates":[-98.964,19.3605]},"properties":{"id":"node/13555578358","name":"Panteón Coaxusco","mode":"light_rail"}},{"type":"Feature","geometry":{"type":"Point","coordinates":[-98.9527,19.3655]},"properties":{"id":"node/13555578359","name":"Magdalena Atlicpac","mode":"light_rail"}},{"type":"Feature","geometry":{"type":"Point","coordinates":[-98.9461,19.3737]},"properties":{"id":"node/13555578361","name":"Hospital Materno Infantil","mode":"light_rail"}},{"type":"Feature","geometry":{"type":"Point","coordinates":[-98.9567,19.3223]},"properties":{"id":"way/1388726488","name":"Parque de la Mujer","mode":"bus_station"}},{"type":"Feature","geometry":{"type":"Point","coordinates":[-98.9565,19.322]},"properties":{"id":"way/1388726489","name":"","mode":"bus_station"}},{"type":"Feature","geometry":{"type":"Point","coordinates":[-99.2755,19.4943]},"properties":{"id":"node/4337600393","name":"Ruta 31","mode":"bus_station"}},{"type":"Feature","geometry":{"type":"Point","coordinates":[-99.273,19.4926]},"properties":{"id":"node/4337608189","name":"Base ruta colinas","mode":"bus_station"}},{"type":"Feature","geometry":{"type":"Point","coordinates":[-99.2914,19.4599]},"properties":{"id":"way/1425954082","name":"Base Presa - Chacona","mode":"bus_station"}},{"type":"Feature","geometry":{"type":"Point","coordinates":[-99.2923,19.4606]},"properties":{"id":"way/1425954083","name":"Base Huertas Chacona","mode":"bus_station"}},{"type":"Feature","geometry":{"type":"Point","coordinates":[-99.2841,19.4594]},"properties":{"id":"way/1425954084","name":"Base Huertas Mercado","mode":"bus_station"}},{"type":"Feature","geometry":{"type":"Point","coordinates":[-99.2847,19.4565]},"properties":{"id":"way/1425955709","name":"Base Bulgaria","mode":"bus_station"}},{"type":"Feature","geometry":{"type":"Point","coordinates":[-99.2731,19.4589]},"properties":{"id":"way/1425960017","name":"Base Corralito","mode":"bus_station"}},{"type":"Feature","geometry":{"type":"Point","coordinates":[-99.278,19.4593]},"properties":{"id":"way/1425960018","name":"Base Puente","mode":"bus_station"}},{"type":"Feature","geometry":{"type":"Point","coordinates":[-99.2778,19.4674]},"properties":{"id":"way/1425960249","name":"Base Hornos Atoron","mode":"bus_station"}},{"type":"Feature","geometry":{"type":"Point","coordinates":[-99.2698,19.4578]},"properties":{"id":"way/1426244828","name":"Base Cañada","mode":"bus_station"}},{"type":"Feature","geometry":{"type":"Point","coordinates":[-99.2779,19.457]},"properties":{"id":"way/1426246930","name":"Base Canteras","mode":"bus_station"}},{"type":"Feature","geometry":{"type":"Point","coordinates":[-99.1905,19.4696]},"properties":{"id":"node/308562800","name":"Refinería","mode":"subway"}},{"type":"Feature","geometry":{"type":"Point","coordinates":[-99.19,19.4791]},"properties":{"id":"node/308564178","name":"Camarones","mode":"subway"}},{"type":"Feature","geometry":{"type":"Point","coordinates":[-99.1953,19.4907]},"properties":{"id":"node/308564186","name":"Aquiles Serdán","mode":"subway"}},{"type":"Feature","geometry":{"type":"Point","coordinates":[-99.196,19.4949]},"properties":{"id":"node/351114417","name":"Tezozómoc","mode":"subway"}},{"type":"Feature","geometry":{"type":"Point","coordinates":[-99.1863,19.4909]},"properties":{"id":"node/351114595","name":"UAM-Azcapotzalco","mode":"subway"}},{"type":"Feature","geometry":{"type":"Point","coordinates":[-99.1739,19.4907]},"properties":{"id":"node/351114805","name":"Ferrería/Arena Ciudad de México","mode":"subway"}},{"type":"Feature","geometry":{"type":"Point","coordinates":[-99.163,19.4886]},"properties":{"id":"node/351114820","name":"Norte 45","mode":"subway"}},{"type":"Feature","geometry":{"type":"Point","coordinates":[-99.1561,19.4898]},"properties":{"id":"node/351114867","name":"Vallejo","mode":"subway"}},{"type":"Feature","geometry":{"type":"Point","coordinates":[-99.1841,19.5357]},"properties":{"id":"node/5049810418","name":"Tlalnepantla","mode":"station"}},{"type":"Feature","geometry":{"type":"Point","coordinates":[-99.203,19.4587]},"properties":{"id":"node/5339522597","name":"Panteones","mode":"subway"}},{"type":"Feature","geometry":{"type":"Point","coordinates":[-99.1871,19.4589]},"properties":{"id":"node/5339524622","name":"Tacuba","mode":"subway"}},{"type":"Feature","geometry":{"type":"Point","coordinates":[-99.1815,19.4572]},"properties":{"id":"node/5339538498","name":"Cuitláhuac","mode":"subway"}},{"type":"Feature","geometry":{"type":"Point","coordinates":[-99.1999,19.5047]},"properties":{"id":"node/5382498627","name":"El Rosario","mode":"subway"}},{"type":"Feature","geometry":{"type":"Point","coordinates":[-99.1977,19.5055]},"properties":{"id":"node/5392711624","name":"Servicio de Transportes Eléctricos de la CDMX. Depósito de trolebuses.","mode":"bus_station"}},{"type":"Feature","geometry":{"type":"Point","coordinates":[-99.1783,19.5438]},"properties":{"id":"node/5423131548","name":"Base Izcalli Piramide","mode":"bus_station"}},{"type":"Feature","geometry":{"type":"Point","coordinates":[-99.195,19.5653]},"properties":{"id":"node/6948989569","name":"San Rafael","mode":"station"}},{"type":"Feature","geometry":{"type":"Point","coordinates":[-99.1711,19.4918]},"properties":{"id":"node/7007923225","name":"Fortuna","mode":"station"}},{"type":"Feature","geometry":{"type":"Point","coordinates":[-99.1721,19.5486]},"properties":{"id":"node/7829879727","name":"Base Microbuses","mode":"bus_station"}},{"type":"Feature","geometry":{"type":"Point","coordinates":[-99.1577,19.5019]},"properties":{"id":"node/10277129530","name":"","mode":"bus_station"}},{"type":"Feature","geometry":{"type":"Point","coordinates":[-99.2065,19.5424]},"properties":{"id":"node/10288541709","name":"","mode":"bus_station"}},{"type":"Feature","geometry":{"type":"Point","coordinates":[-99.1896,19.5417]},"properties":{"id":"node/10978082908","name":"","mode":"bus_station"}},{"type":"Feature","geometry":{"type":"Point","coordinates":[-99.1899,19.5419]},"properties":{"id":"node/10978082909","name":"","mode":"bus_station"}},{"type":"Feature","geometry":{"type":"Point","coordinates":[-99.1892,19.5404]},"properties":{"id":"node/11214218889","name":"Tlanepantla Centro","mode":"bus_station"}},{"type":"Feature","geometry":{"type":"Point","coordinates":[-99.1885,19.539]},"properties":{"id":"node/11386630356","name":"","mode":"bus_station"}},{"type":"Feature","geometry":{"type":"Point","coordinates":[-99.1695,19.553]},"properties":{"id":"node/13033134701","name":"","mode":"bus_station"}},{"type":"Feature","geometry":{"type":"Point","coordinates":[-99.1694,19.5533]},"properties":{"id":"node/13034369101","name":"","mode":"bus_station"}},{"type":"Feature","geometry":{"type":"Point","coordinates":[-99.2388,19.4591]},"properties":{"id":"node/13680779269","name":"","mode":"station"}},{"type":"Feature","geometry":{"type":"Point","coordinates":[-99.2154,19.4607]},"properties":{"id":"way/217727529","name":"CETRAM Cuatro Caminos","mode":"bus_station"}},{"type":"Feature","geometry":{"type":"Point","coordinates":[-99.2157,19.4581]},"properties":{"id":"way/217727532","name":"CETRAM Cuatro Caminos","mode":"bus_station"}},{"type":"Feature","geometry":{"type":"Point","coordinates":[-99.2006,19.5051]},"properties":{"id":"way/418228946","name":"CETRAM El Rosario","mode":"bus_station"}},{"type":"Feature","geometry":{"type":"Point","coordinates":[-99.2063,19.5424]},"properties":{"id":"way/1160756367","name":"Terminal Tlanepantla","mode":"bus_station"}},{"type":"Feature","geometry":{"type":"Point","coordinates":[-99.2425,19.4571]},"properties":{"id":"way/1293733371","name":"San Antonio Zomeyucan","mode":"station"}},{"type":"Feature","geometry":{"type":"Point","coordinates":[-99.1741,19.4907]},"properties":{"id":"way/1295836661","name":"Ferrería/Arena Ciudad de México","mode":"subway"}},{"type":"Feature","geometry":{"type":"Point","coordinates":[-99.1883,19.4594]},"properties":{"id":"way/1298660154","name":"Tacuba L2","mode":"subway"}},{"type":"Feature","geometry":{"type":"Point","coordinates":[-99.1878,19.4582]},"properties":{"id":"way/1298660155","name":"Tacuba L7","mode":"subway"}},{"type":"Feature","geometry":{"type":"Point","coordinates":[-99.2144,19.4564]},"properties":{"id":"way/1424240387","name":"COPATTSA Cuatro Caminos","mode":"bus_station"}},{"type":"Feature","geometry":{"type":"Point","coordinates":[-99.2137,19.4561]},"properties":{"id":"way/1424240388","name":"RTP Cuatro Caminos","mode":"bus_station"}},{"type":"Feature","geometry":{"type":"Point","coordinates":[-99.2028,19.4586]},"properties":{"id":"way/1424240393","name":"Ruta 7","mode":"bus_station"}},{"type":"Feature","geometry":{"type":"Point","coordinates":[-99.2152,19.4613]},"properties":{"id":"way/1478885745","name":"Cuatro Caminos","mode":"station"}},{"type":"Feature","geometry":{"type":"Point","coordinates":[-99.1996,19.5073]},"properties":{"id":"way/1490725347","name":"El Rosario","mode":"bus_station"}},{"type":"Feature","geometry":{"type":"Point","coordinates":[-99.2155,19.4633]},"properties":{"id":"way/1492959226","name":"Alce Blanco","mode":"station"}},{"type":"Feature","geometry":{"type":"Point","coordinates":[-99.2252,19.4623]},"properties":{"id":"way/1492959227","name":"Lázaro Cárdenas","mode":"station"}},{"type":"Feature","geometry":{"type":"Point","coordinates":[-99.2377,19.4596]},"properties":{"id":"way/1492959228","name":"El Molinito","mode":"station"}},{"type":"Feature","geometry":{"type":"Point","coordinates":[-99.2157,19.46]},"properties":{"id":"relation/12291992","name":"Cuatro Caminos","mode":"subway"}},{"type":"Feature","geometry":{"type":"Point","coordinates":[-99.1351,19.4881]},"properties":{"id":"node/351113759","name":"Lindavista","mode":"subway"}},{"type":"Feature","geometry":{"type":"Point","coordinates":[-99.1184,19.4816]},"properties":{"id":"node/351115062","name":"La Villa-Basílica","mode":"subway"}},{"type":"Feature","geometry":{"type":"Point","coordinates":[-99.108,19.4744]},"properties":{"id":"node/2266111986","name":"Talismán","mode":"station"}},{"type":"Feature","geometry":{"type":"Point","coordinates":[-99.112,19.4646]},"properties":{"id":"node/2266111991","name":"Bondojito","mode":"subway"}},{"type":"Feature","geometry":{"type":"Point","coordinates":[-99.1304,19.4632]},"properties":{"id":"node/2288627580","name":"Misterios","mode":"subway"}},{"type":"Feature","geometry":{"type":"Point","coordinates":[-99.1201,19.459]},"properties":{"id":"node/2288627581","name":"Valle Gómez","mode":"subway"}},{"type":"Feature","geometry":{"type":"Point","coordinates":[-99.0745,19.5491]},"properties":{"id":"node/4434848152","name":"Hank González","mode":"station"}},{"type":"Feature","geometry":{"type":"Point","coordinates":[-99.0848,19.5618]},"properties":{"id":"node/4434848157","name":"Los Bordos","mode":"station"}},{"type":"Feature","geometry":{"type":"Point","coordinates":[-99.0806,19.5563]},"properties":{"id":"node/4434848162","name":"Tablas del Pozo","mode":"station"}},{"type":"Feature","geometry":{"type":"Point","coordinates":[-99.0781,19.5535]},"properties":{"id":"node/4437310111","name":"Fátima","mode":"station"}},{"type":"Feature","geometry":{"type":"Point","coordinates":[-99.092,19.5688]},"properties":{"id":"node/4437310112","name":"La Cañada","mode":"station"}},{"type":"Feature","geometry":{"type":"Point","coordinates":[-99.0588,19.5402]},"properties":{"id":"node/4437310113","name":"Santa Clara","mode":"station"}},{"type":"Feature","geometry":{"type":"Point","coordinates":[-99.1312,19.4771]},"properties":{"id":"node/4567116690","name":"Autobuses Teotihuacán","mode":"bus_station"}},{"type":"Feature","geometry":{"type":"Point","coordinates":[-99.1301,19.5057]},"properties":{"id":"node/4987343899","name":"Estación de autobuses Politécnico-Universidad","mode":"bus_station"}},{"type":"Feature","geometry":{"type":"Point","coordinates":[-99.1035,19.4811]},"properties":{"id":"node/5213516322","name":"Autobuses 107 B","mode":"bus_station"}},{"type":"Feature","geometry":{"type":"Point","coordinates":[-99.1385,19.4803]},"properties":{"id":"node/5229406955","name":"México Central Norte","mode":"bus_station"}},{"type":"Feature","geometry":{"type":"Point","coordinates":[-99.1395,19.4687]},"properties":{"id":"node/5335707477","name":"La Raza","mode":"subway"}},{"type":"Feature","geometry":{"type":"Point","coordinates":[-99.1068,19.4828]},"properties":{"id":"node/5363864103","name":"Martín Carrera","mode":"subway"}},{"type":"Feature","geometry":{"type":"Point","coordinates":[-99.1251,19.4843]},"properties":{"id":"node/5382514908","name":"Deportivo 18 de Marzo","mode":"subway"}},{"type":"Feature","geometry":{"type":"Point","coordinates":[-99.1202,19.496]},"properties":{"id":"node/6101411017","name":"Paradero de Indios Verdes","mode":"bus_station"}},{"type":"Feature","geometry":{"type":"Point","coordinates":[-99.0879,19.5655]},"properties":{"id":"node/6389639696","name":"Deportivo","mode":"station"}},{"type":"Feature","geometry":{"type":"Point","coordinates":[-99.0588,19.5399]},"properties":{"id":"node/6389639893","name":"Terminal Mexibús Mexicable","mode":"bus_station"}},{"type":"Feature","geometry":{"type":"Point","coordinates":[-99.1396,19.5613]},"properties":{"id":"node/6630622711","name":"El Tepetatal (El Charco)","mode":"bus_station"}},{"type":"Feature","geometry":{"type":"Point","coordinates":[-99.1244,19.5492]},"properties":{"id":"node/6630644291","name":"Cocoyotes (La Brecha)","mode":"bus_station"}},{"type":"Feature","geometry":{"type":"Point","coordinates":[-99.1347,19.5711]},"properties":{"id":"node/6630658667","name":"Lomas de Cuautepec","mode":"bus_station"}},{"type":"Feature","geometry":{"type":"Point","coordinates":[-99.1263,19.5663]},"properties":{"id":"node/6630687841","name":"La Forestal","mode":"bus_station"}},{"type":"Feature","geometry":{"type":"Point","coordinates":[-99.0735,19.5015]},"properties":{"id":"node/6631951066","name":"San Felipe de Jesús (León de los Aldama)","mode":"bus_station"}},{"type":"Feature","geometry":{"type":"Point","coordinates":[-99.1222,19.4952]},"properties":{"id":"node/6854760875","name":"Indios Verdes","mode":"station"}},{"type":"Feature","geometry":{"type":"Point","coordinates":[-99.1339,19.5117]},"properties":{"id":"node/6854760878","name":"Ticomán","mode":"station"}},{"type":"Feature","geometry":{"type":"Point","coordinates":[-99.142,19.5406]},"properties":{"id":"node/6854760880","name":"Campos Revolución","mode":"station"}},{"type":"Feature","geometry":{"type":"Point","coordinates":[-99.1342,19.558]},"properties":{"id":"node/6854760882","name":"Cuautepec","mode":"station"}},{"type":"Feature","geometry":{"type":"Point","coordinates":[-99.1409,19.5276]},"properties":{"id":"node/6854761312","name":"La Pastora","mode":"station"}},{"type":"Feature","geometry":{"type":"Point","coordinates":[-99.1262,19.5448]},"properties":{"id":"node/6854761314","name":"Tlalpexco","mode":"station"}},{"type":"Feature","geometry":{"type":"Point","coordinates":[-99.0703,19.5719]},"properties":{"id":"node/6872538158","name":"Base San Pedro Santa Clara La Presa","mode":"bus_station"}},{"type":"Feature","geometry":{"type":"Point","coordinates":[-99.1183,19.4982]},"properties":{"id":"node/8934270154","name":"Indios Verdes","mode":"station"}},{"type":"Feature","geometry":{"type":"Point","coordinates":[-99.107,19.5127]},"properties":{"id":"node/8934270155","name":"Tanque de Agua","mode":"station"}},{"type":"Feature","geometry":{"type":"Point","coordinates":[-99.1006,19.5335]},"properties":{"id":"node/8934270157","name":"San Isidro","mode":"station"}},{"type":"Feature","geometry":{"type":"Point","coordinates":[-99.0933,19.541]},"properties":{"id":"node/8934270158","name":"Dr. Jorge Jiménez Cantú","mode":"station"}},{"type":"Feature","geometry":{"type":"Point","coordinates":[-99.0799,19.5437]},"properties":{"id":"node/8934270159","name":"La Mesa","mode":"station"}},{"type":"Feature","geometry":{"type":"Point","coordinates":[-99.0744,19.5489]},"properties":{"id":"node/8934270160","name":"Carlos Hank González","mode":"station"}},{"type":"Feature","geometry":{"type":"Point","coordinates":[-99.0984,19.5176]},"properties":{"id":"node/9644497983","name":"Periférico","mode":"station"}},{"type":"Feature","geometry":{"type":"Point","coordinates":[-99.1494,19.5001]},"properties":{"id":"node/10576982447","name":"Metro Politécnico (Poniente)","mode":"bus_station"}},{"type":"Feature","geometry":{"type":"Point","coordinates":[-99.1295,19.5193]},"properties":{"id":"node/10671888705","name":"Zacatenco","mode":"bus_station"}},{"type":"Feature","geometry":{"type":"Point","coordinates":[-99.1178,19.489]},"properties":{"id":"node/10895386805","name":"La Villa","mode":"bus_station"}},{"type":"Feature","geometry":{"type":"Point","coordinates":[-99.1185,19.4968]},"properties":{"id":"node/11225888045","name":"Poza Rica","mode":"bus_station"}},{"type":"Feature","geometry":{"type":"Point","coordinates":[-99.1189,19.4951]},"properties":{"id":"node/11225888058","name":"Terminal ETT","mode":"bus_station"}},{"type":"Feature","geometry":{"type":"Point","coordinates":[-99.0859,19.5064]},"properties":{"id":"node/11686340544","name":"Río de los Remedios","mode":"bus_station"}},{"type":"Feature","geometry":{"type":"Point","coordinates":[-99.0739,19.502]},"properties":{"id":"node/11686340545","name":"León de los Aldama","mode":"bus_station"}},{"type":"Feature","geometry":{"type":"Point","coordinates":[-99.1258,19.4857]},"properties":{"id":"node/12372324272","name":"Deportivo 18 de Marzo / Basilica","mode":"bus_station"}},{"type":"Feature","geometry":{"type":"Point","coordinates":[-99.1492,19.5006]},"properties":{"id":"node/12536496310","name":"Politécnico","mode":"subway"}},{"type":"Feature","geometry":{"type":"Point","coordinates":[-99.1388,19.4679]},"properties":{"id":"node/12682190417","name":"La Raza","mode":"bus_station"}},{"type":"Feature","geometry":{"type":"Point","coordinates":[-99.0468,19.4906]},"properties":{"id":"node/13089350834","name":"Río de Remedios","mode":"subway"}},{"type":"Feature","geometry":{"type":"Point","coordinates":[-99.049,19.4857]},"properties":{"id":"node/13089350835","name":"Impulsora","mode":"subway"}},{"type":"Feature","geometry":{"type":"Point","coordinates":[-99.0546,19.4729]},"properties":{"id":"node/13089350842","name":"Nezahualcóyotl","mode":"subway"}},{"type":"Feature","geometry":{"type":"Point","coordinates":[-99.0613,19.4617]},"properties":{"id":"node/13089350843","name":"Villa de Aragón","mode":"subway"}},{"type":"Feature","geometry":{"type":"Point","coordinates":[-99.0693,19.4581]},"properties":{"id":"node/13089350844","name":"Bosque de Aragón","mode":"subway"}},{"type":"Feature","geometry":{"type":"Point","coordinates":[-99.1365,19.4697]},"properties":{"id":"node/13096157856","name":"La Raza","mode":"subway"}},{"type":"Feature","geometry":{"type":"Point","coordinates":[-99.1406,19.4789]},"properties":{"id":"node/13096157888","name":"Autobuses del Norte","mode":"subway"}},{"type":"Feature","geometry":{"type":"Point","coordinates":[-99.1447,19.4894]},"properties":{"id":"node/13096174704","name":"Instituto del Petróleo","mode":"subway"}},{"type":"Feature","geometry":{"type":"Point","coordinates":[-99.1139,19.4581]},"properties":{"id":"node/13100444139","name":"Consulado L4","mode":"subway"}},{"type":"Feature","geometry":{"type":"Point","coordinates":[-99.0503,19.5396]},"properties":{"id":"node/13685697103","name":"Ruta 54 Campiña","mode":"bus_station"}},{"type":"Feature","geometry":{"type":"Point","coordinates":[-99.1366,19.4764]},"properties":{"id":"node/13910954432","name":"Ecobus","mode":"bus_station"}},{"type":"Feature","geometry":{"type":"Point","coordinates":[-99.1395,19.4793]},"properties":{"id":"way/32455081","name":"Terminal Central de Autobuses del Norte","mode":"bus_station"}},{"type":"Feature","geometry":{"type":"Point","coordinates":[-99.0614,19.4616]},"properties":{"id":"way/217355642","name":"Metro Villa de Aragón LB","mode":"subway"}},{"type":"Feature","geometry":{"type":"Point","coordinates":[-99.1195,19.4953]},"properties":{"id":"way/217801323","name":"Indios Verdes","mode":"subway"}},{"type":"Feature","geometry":{"type":"Point","coordinates":[-99.1261,19.4854]},"properties":{"id":"way/217801758","name":"CETRAM 18 de Marzo","mode":"bus_station"}},{"type":"Feature","geometry":{"type":"Point","coordinates":[-99.1251,19.4846]},"properties":{"id":"way/217801761","name":"CETRAM 18 de Marzo","mode":"bus_station"}},{"type":"Feature","geometry":{"type":"Point","coordinates":[-99.1313,19.4769]},"properties":{"id":"way/217802097","name":"CETRAM Potrero","mode":"bus_station"}},{"type":"Feature","geometry":{"type":"Point","coordinates":[-99.1326,19.4776]},"properties":{"id":"way/217802098","name":"CETRAM Potrero","mode":"bus_station"}},{"type":"Feature","geometry":{"type":"Point","coordinates":[-99.1321,19.4771]},"properties":{"id":"way/217802099","name":"Potrero","mode":"subway"}},{"type":"Feature","geometry":{"type":"Point","coordinates":[-99.1398,19.4684]},"properties":{"id":"way/217802253","name":"CETRAM La Raza","mode":"bus_station"}},{"type":"Feature","geometry":{"type":"Point","coordinates":[-99.0919,19.5686]},"properties":{"id":"way/446162072","name":"Estación Méxicable \"La Cañada\"","mode":"station"}},{"type":"Feature","geometry":{"type":"Point","coordinates":[-99.0745,19.5492]},"properties":{"id":"way/544004249","name":"Estación Méxicable \"Hank Gonzalez\"","mode":"station"}},{"type":"Feature","geometry":{"type":"Point","coordinates":[-99.0879,19.5654]},"properties":{"id":"way/682311025","name":"Estación Méxicable \"Deportivo\"","mode":"station"}},{"type":"Feature","geometry":{"type":"Point","coordinates":[-99.0588,19.5402]},"properties":{"id":"way/682311039","name":"Estación Méxicable \"Santa Clara\"","mode":"station"}},{"type":"Feature","geometry":{"type":"Point","coordinates":[-99.1308,19.5763]},"properties":{"id":"way/705662314","name":"Ampliación Malacates","mode":"bus_station"}},{"type":"Feature","geometry":{"type":"Point","coordinates":[-99.0781,19.5534]},"properties":{"id":"way/888775602","name":"Estación Méxicable \"Fátima\"","mode":"station"}},{"type":"Feature","geometry":{"type":"Point","coordinates":[-99.0806,19.5563]},"properties":{"id":"way/888775604","name":"Estación Méxicable \"Tablas del Pozo\"","mode":"station"}},{"type":"Feature","geometry":{"type":"Point","coordinates":[-99.0847,19.5617]},"properties":{"id":"way/888775605","name":"Estación Méxicable \"Los Bordos\"","mode":"station"}},{"type":"Feature","geometry":{"type":"Point","coordinates":[-99.08,19.5438]},"properties":{"id":"way/889014046","name":"Mexicable Línea 2: Estación La Mesa","mode":"station"}},{"type":"Feature","geometry":{"type":"Point","coordinates":[-99.0933,19.5409]},"properties":{"id":"way/889014048","name":"Mexicable Línea 2: Estación Dr. Jorge Jiménez Cantú","mode":"station"}},{"type":"Feature","geometry":{"type":"Point","coordinates":[-99.1006,19.5334]},"properties":{"id":"way/889014049","name":"Mexicable Línea 2: Estación San Isidro","mode":"station"}},{"type":"Feature","geometry":{"type":"Point","coordinates":[-99.1069,19.5127]},"properties":{"id":"way/889014051","name":"Mexicable Línea 2: Estación Tanque de Agua","mode":"station"}},{"type":"Feature","geometry":{"type":"Point","coordinates":[-99.0986,19.5177]},"properties":{"id":"way/1049470249","name":"Mexicable Línea 2: Estación Periférico","mode":"station"}},{"type":"Feature","geometry":{"type":"Point","coordinates":[-99.1183,19.4984]},"properties":{"id":"way/1049470253","name":"Mexicable Línea 2: Estación Indios Verdes","mode":"station"}},{"type":"Feature","geometry":{"type":"Point","coordinates":[-99.0744,19.5489]},"properties":{"id":"way/1049470261","name":"Mexicable Línea 2: Estación Hank González II","mode":"station"}},{"type":"Feature","geometry":{"type":"Point","coordinates":[-99.1051,19.4844]},"properties":{"id":"way/1258715942","name":"Martín Carrera","mode":"subway"}},{"type":"Feature","geometry":{"type":"Point","coordinates":[-99.1362,19.4954]},"properties":{"id":"way/1361614228","name":"Zacatenco","mode":"bus_station"}},{"type":"Feature","geometry":{"type":"Point","coordinates":[-99.125,19.4839]},"properties":{"id":"way/1365089734","name":"Deportivo 18 de Marzo L6","mode":"subway"}},{"type":"Feature","geometry":{"type":"Point","coordinates":[-99.1394,19.4685]},"properties":{"id":"way/1366024582","name":"La Raza L3","mode":"subway"}},{"type":"Feature","geometry":{"type":"Point","coordinates":[-99.1372,19.4694]},"properties":{"id":"way/1366029271","name":"La Raza L5","mode":"subway"}},{"type":"Feature","geometry":{"type":"Point","coordinates":[-99.1398,19.4677]},"properties":{"id":"way/1393457461","name":"","mode":"bus_station"}},{"type":"Feature","geometry":{"type":"Point","coordinates":[-99.1509,19.5002]},"properties":{"id":"relation/5944587","name":"CETRAM Politécnico","mode":"bus_station"}},{"type":"Feature","geometry":{"type":"Point","coordinates":[-99.1255,19.4851]},"properties":{"id":"relation/18789884","name":"Deportivo 18 de Marzo L3","mode":"subway"}},{"type":"Feature","geometry":{"type":"Point","coordinates":[-99.0361,19.5152]},"properties":{"id":"node/302327315","name":"Ecatepec","mode":"subway"}},{"type":"Feature","geometry":{"type":"Point","coordinates":[-99.0272,19.5343]},"properties":{"id":"node/674409726","name":"Ciudad Azteca","mode":"bus_station"}},{"type":"Feature","geometry":{"type":"Point","coordinates":[-99.0252,19.5395]},"properties":{"id":"node/1097707134","name":"Quinto Sol","mode":"bus_station"}},{"type":"Feature","geometry":{"type":"Point","coordinates":[-99.0194,19.554]},"properties":{"id":"node/1097707874","name":"UNITEC","mode":"bus_station"}},{"type":"Feature","geometry":{"type":"Point","coordinates":[-99.0244,19.5881]},"properties":{"id":"node/1097710065","name":"1° de Mayo","mode":"bus_station"}},{"type":"Feature","geometry":{"type":"Point","coordinates":[-99.0257,19.5397]},"properties":{"id":"node/1097711439","name":"Quinto Sol","mode":"bus_station"}},{"type":"Feature","geometry":{"type":"Point","coordinates":[-99.019,19.5548]},"properties":{"id":"node/2504571079","name":"UNITEC","mode":"bus_station"}},{"type":"Feature","geometry":{"type":"Point","coordinates":[-99.0249,19.5873]},"properties":{"id":"node/2504602357","name":"1° de Mayo","mode":"bus_station"}},{"type":"Feature","geometry":{"type":"Point","coordinates":[-99.0275,19.5352]},"properties":{"id":"node/2504622072","name":"Ciudad Azteca","mode":"bus_station"}},{"type":"Feature","geometry":{"type":"Point","coordinates":[-99.0241,19.5899]},"properties":{"id":"node/4356488491","name":"Las Américas","mode":"bus_station"}},{"type":"Feature","geometry":{"type":"Point","coordinates":[-99.022,19.5825]},"properties":{"id":"node/7124869612","name":"Base Combis Las Américas","mode":"bus_station"}},{"type":"Feature","geometry":{"type":"Point","coordinates":[-99.0206,19.5822]},"properties":{"id":"node/7209619418","name":"Primera Plus Ecatepec Plaza Las Américas","mode":"bus_station"}},{"type":"Feature","geometry":{"type":"Point","coordinates":[-99.0182,19.5811]},"properties":{"id":"node/8262719799","name":"ETN Turistar Lujo Terminal México-Ecatepec","mode":"bus_station"}},{"type":"Feature","geometry":{"type":"Point","coordinates":[-99.0228,19.5791]},"properties":{"id":"node/11686340546","name":"Centro Cultural","mode":"bus_station"}},{"type":"Feature","geometry":{"type":"Point","coordinates":[-99.0208,19.5828]},"properties":{"id":"node/11686340547","name":"Paseo Ventura","mode":"bus_station"}},{"type":"Feature","geometry":{"type":"Point","coordinates":[-99.0216,19.5866]},"properties":{"id":"node/11686340548","name":"Libertadores de America","mode":"bus_station"}},{"type":"Feature","geometry":{"type":"Point","coordinates":[-99.0334,19.5213]},"properties":{"id":"node/13089071304","name":"Olímpica","mode":"subway"}},{"type":"Feature","geometry":{"type":"Point","coordinates":[-99.0302,19.5285]},"properties":{"id":"node/13089071305","name":"Plaza Aragón","mode":"subway"}},{"type":"Feature","geometry":{"type":"Point","coordinates":[-99.0276,19.5345]},"properties":{"id":"node/13089071306","name":"Ciudad Azteca","mode":"subway"}},{"type":"Feature","geometry":{"type":"Point","coordinates":[-99.0421,19.5015]},"properties":{"id":"node/13089350829","name":"Múzquiz","mode":"subway"}},{"type":"Feature","geometry":{"type":"Point","coordinates":[-99.0216,19.5866]},"properties":{"id":"way/1257034397","name":"","mode":"bus_station"}},{"type":"Feature","geometry":{"type":"Point","coordinates":[-99.0208,19.5829]},"properties":{"id":"way/1257034398","name":"","mode":"bus_station"}},{"type":"Feature","geometry":{"type":"Point","coordinates":[-99.0228,19.5791]},"properties":{"id":"way/1257034399","name":"","mode":"bus_station"}}]}
