{"type":"FeatureCollection","features":[{"type":"Feature","geometry":{"type":"Point","coordinates":[-99.169,19.2794]},"properties":{"id":"way/1153413941","osm_type":"way","osm_id":1153413941,"name":"El Caminero","mode":"brt","system":"BRT","network":"","operator":"Metrobús","station":"","railway":"","amenity":"","public_transport":"station"}},{"type":"Feature","geometry":{"type":"Point","coordinates":[-99.1431,19.3072]},"properties":{"id":"node/1130113572","osm_type":"node","osm_id":1130113572,"name":"El Vergel","mode":"light_rail","system":"Light rail","network":"Tren Ligero","operator":"Servicio de Transportes Eléctricos de la Ciudad de México","station":"light_rail","railway":"station","amenity":"","public_transport":"station"}},{"type":"Feature","geometry":{"type":"Point","coordinates":[-99.1397,19.2827]},"properties":{"id":"node/1130113671","osm_type":"node","osm_id":1130113671,"name":"Periférico","mode":"light_rail","system":"Light rail","network":"Tren Ligero","operator":"Servicio de Transportes Eléctricos de la Ciudad de México","station":"light_rail","railway":"station","amenity":"","public_transport":"station"}},{"type":"Feature","geometry":{"type":"Point","coordinates":[-99.1406,19.3126]},"properties":{"id":"node/1130113729","osm_type":"node","osm_id":1130113729,"name":"Textitlan","mode":"light_rail","system":"Light rail","network":"Tren Ligero","operator":"Servicio de Transportes Eléctricos de la Ciudad de México","station":"light_rail","railway":"station","amenity":"","public_transport":"station"}},{"type":"Feature","geometry":{"type":"Point","coordinates":[-99.1468,19.2888]},"properties":{"id":"node/1130113733","osm_type":"node","osm_id":1130113733,"name":"Xomali","mode":"light_rail","system":"Light rail","network":"Tren Ligero","operator":"Servicio de Transportes Eléctricos de la Ciudad de México","station":"light_rail","railway":"station","amenity":"","public_transport":"station"}},{"type":"Feature","geometry":{"type":"Point","coordinates":[-99.1186,19.2644]},"properties":{"id":"node/1130113753","osm_type":"node","osm_id":1130113753,"name":"Huichapan","mode":"light_rail","system":"Light rail","network":"Tren Ligero","operator":"Servicio de Transportes Eléctricos de la Ciudad de México","station":"light_rail","railway":"station","amenity":"","public_transport":"station"}},{"type":"Feature","geometry":{"type":"Point","coordinates":[-99.1081,19.2595]},"properties":{"id":"node/1130113790","osm_type":"node","osm_id":1130113790,"name":"Xochimilco","mode":"light_rail","system":"Light rail","network":"Tren Ligero","operator":"Servicio de Transportes Eléctricos de la Ciudad de México","station":"light_rail","railway":"station","amenity":"","public_transport":"station"}},{"type":"Feature","geometry":{"type":"Point","coordinates":[-99.1255,19.2679]},"properties":{"id":"node/1130113794","osm_type":"node","osm_id":1130113794,"name":"La Noria","mode":"light_rail","system":"Light rail","network":"Tren Ligero","operator":"Servicio de Transportes Eléctricos de la Ciudad de México","station":"light_rail","railway":"station","amenity":"","public_transport":"station"}},{"type":"Feature","geometry":{"type":"Point","coordinates":[-99.1331,19.2795]},"properties":{"id":"node/1130113803","osm_type":"node","osm_id":1130113803,"name":"Tepepan","mode":"light_rail","system":"Light rail","network":"Tren Ligero","operator":"Servicio de Transportes Eléctricos de la Ciudad de México","station":"light_rail","railway":"station","amenity":"","public_transport":"station"}},{"type":"Feature","geometry":{"type":"Point","coordinates":[-99.1113,19.2607]},"properties":{"id":"node/1130113836","osm_type":"node","osm_id":1130113836,"name":"Francisco Goitia","mode":"light_rail","system":"Light rail","network":"Tren Ligero","operator":"Servicio de Transportes Eléctricos de la Ciudad de México","station":"light_rail","railway":"station","amenity":"","public_transport":"station"}},{"type":"Feature","geometry":{"type":"Point","coordinates":[-99.1388,19.3179]},"properties":{"id":"node/3021967669","osm_type":"node","osm_id":3021967669,"name":"Registro Federal","mode":"light_rail","system":"Light rail","network":"Tren Ligero","operator":"Servicio de Transportes Eléctricos de la Ciudad de México","station":"light_rail","railway":"station","amenity":"","public_transport":"station"}},{"type":"Feature","geometry":{"type":"Point","coordinates":[-99.0746,19.3177]},"properties":{"id":"node/5358301208","osm_type":"node","osm_id":5358301208,"name":"Periférico Oriente","mode":"subway","system":"Metro","network":"STC Metro","operator":"Sistema de Transporte Colectivo","station":"subway","railway":"station","amenity":"","public_transport":"station"}},{"type":"Feature","geometry":{"type":"Point","coordinates":[-99.1507,19.2976]},"properties":{"id":"node/6572510416","osm_type":"node","osm_id":6572510416,"name":"Huipulco","mode":"light_rail","system":"Light rail","network":"","operator":"","station":"light_rail","railway":"station","amenity":"","public_transport":"station"}},{"type":"Feature","geometry":{"type":"Point","coordinates":[-99.1205,19.2734]},"properties":{"id":"node/9840450429","osm_type":"node","osm_id":9840450429,"name":"Preparatoria 1","mode":"brt","system":"BRT","network":"Metrobús","operator":"Secretaría de Movilidad (SEMOVI)","station":"","railway":"","amenity":"bus_station","public_transport":"station"}},{"type":"Feature","geometry":{"type":"Point","coordinates":[-99.0652,19.3063]},"properties":{"id":"node/11059788206","osm_type":"node","osm_id":11059788206,"name":"Tezonco","mode":"subway","system":"Metro","network":"STC Metro","operator":"Sistema de Transporte Colectivo","station":"subway","railway":"station","amenity":"","public_transport":"station"}},{"type":"Feature","geometry":{"type":"Point","coordinates":[-99.0595,19.3043]},"properties":{"id":"node/11059788207","osm_type":"node","osm_id":11059788207,"name":"Olivos","mode":"subway","system":"Metro","network":"STC Metro","operator":"Sistema de Transporte Colectivo","station":"subway","railway":"station","amenity":"","public_transport":"station"}},{"type":"Feature","geometry":{"type":"Point","coordinates":[-99.147,19.3019]},"properties":{"id":"node/13829521246","osm_type":"node","osm_id":13829521246,"name":"Estadio Banorte","mode":"light_rail","system":"Light rail","network":"","operator":"","station":"light_rail","railway":"station","amenity":"","public_transport":"station"}},{"type":"Feature","geometry":{"type":"Point","coordinates":[-99.1206,19.2734]},"properties":{"id":"way/940534522","osm_type":"way","osm_id":940534522,"name":"Preparatoria 1","mode":"brt","system":"BRT","network":"Metrobús Línea 5","operator":"Sistema Metrobús","station":"","railway":"","amenity":"bus_station","public_transport":"station"}},{"type":"Feature","geometry":{"type":"Point","coordinates":[-99.024,19.2944]},"properties":{"id":"node/1991237943","osm_type":"node","osm_id":1991237943,"name":"Tlaltenco","mode":"subway","system":"Metro","network":"STC Metro","operator":"Sistema de Transporte Colectivo","station":"subway","railway":"station","amenity":"","public_transport":"station"}},{"type":"Feature","geometry":{"type":"Point","coordinates":[-99.046,19.2999]},"properties":{"id":"node/10173855113","osm_type":"node","osm_id":10173855113,"name":"Nopalera","mode":"subway","system":"Metro","network":"STC Metro","operator":"Sistema de Transporte Colectivo","station":"subway","railway":"station","amenity":"","public_transport":"station"}},{"type":"Feature","geometry":{"type":"Point","coordinates":[-99.0142,19.2861]},"properties":{"id":"node/11013265297","osm_type":"node","osm_id":11013265297,"name":"Tlahuac","mode":"subway","system":"Metro","network":"","operator":"","station":"subway","railway":"station","amenity":"","public_transport":"station"}},{"type":"Feature","geometry":{"type":"Point","coordinates":[-99.0342,19.2967]},"properties":{"id":"node/11166740914","osm_type":"node","osm_id":11166740914,"name":"Zapotitlán","mode":"subway","system":"Metro","network":"STC Metro","operator":"Sistema de Transporte Colectivo","station":"subway","railway":"station","amenity":"","public_transport":"station"}},{"type":"Feature","geometry":{"type":"Point","coordinates":[-98.9465,19.3136]},"properties":{"id":"way/1389438708","osm_type":"way","osm_id":1389438708,"name":"Cuauhtémoc","mode":"trolleybus","system":"Trolleybus","network":"Trolebús","operator":"STE","station":"","railway":"","amenity":"bus_station","public_transport":"station"}},{"type":"Feature","geometry":{"type":"Point","coordinates":[-99.2689,19.364]},"properties":{"id":"way/635410881","osm_type":"way","osm_id":635410881,"name":"Santa Fe","mode":"regional_rail","system":"Regional rail","network":"Tren Interurbano México-Toluca","operator":"FONADIN","station":"","railway":"station","amenity":"","public_transport":""}},{"type":"Feature","geometry":{"type":"Point","coordinates":[-99.2778,19.4477]},"properties":{"id":"way/1492959232","osm_type":"way","osm_id":1492959232,"name":"Izcalli Chamapa","mode":"cable_car","system":"Cable car","network":"Mexicable Línea 3","operator":"Mexicable","station":"","railway":"","amenity":"","public_transport":"station"}},{"type":"Feature","geometry":{"type":"Point","coordinates":[-99.2619,19.4395]},"properties":{"id":"way/1492959233","osm_type":"way","osm_id":1492959233,"name":"Benito Juárez","mode":"cable_car","system":"Cable car","network":"Mexicable Línea 3","operator":"Mexicable","station":"","railway":"","amenity":"","public_transport":"station"}},{"type":"Feature","geometry":{"type":"Point","coordinates":[-99.2712,19.4364]},"properties":{"id":"way/1492959234","osm_type":"way","osm_id":1492959234,"name":"Lomas del Cadete","mode":"cable_car","system":"Cable car","network":"Mexicable Línea 3","operator":"Mexicable","station":"","railway":"","amenity":"","public_transport":"station"}},{"type":"Feature","geometry":{"type":"Point","coordinates":[-99.1893,19.3616]},"properties":{"id":"node/308554084","osm_type":"node","osm_id":308554084,"name":"Barranca del Muerto","mode":"subway","system":"Metro","network":"STC Metro","operator":"Sistema de Transporte Colectivo","station":"subway","railway":"station","amenity":"","public_transport":"station"}},{"type":"Feature","geometry":{"type":"Point","coordinates":[-99.1866,19.3845]},"properties":{"id":"node/308556308","osm_type":"node","osm_id":308556308,"name":"San Antonio","mode":"subway","system":"Metro","network":"STC Metro","operator":"Sistema de Transporte Colectivo","station":"subway","railway":"station","amenity":"","public_transport":"station"}},{"type":"Feature","geometry":{"type":"Point","coordinates":[-99.1914,19.4118]},"properties":{"id":"node/308557541","osm_type":"node","osm_id":308557541,"name":"Constituyentes","mode":"subway","system":"Metro","network":"STC Metro","operator":"Sistema de Transporte Colectivo","station":"subway","railway":"station","amenity":"","public_transport":"station"}},{"type":"Feature","geometry":{"type":"Point","coordinates":[-99.1923,19.425]},"properties":{"id":"node/308561119","osm_type":"node","osm_id":308561119,"name":"Auditorio","mode":"subway","system":"Metro","network":"STC Metro","operator":"Sistema de Transporte Colectivo","station":"subway","railway":"station","amenity":"","public_transport":"station"}},{"type":"Feature","geometry":{"type":"Point","coordinates":[-99.1909,19.4335]},"properties":{"id":"node/308561120","osm_type":"node","osm_id":308561120,"name":"Polanco","mode":"subway","system":"Metro","network":"STC Metro","operator":"Sistema de Transporte Colectivo","station":"subway","railway":"station","amenity":"","public_transport":"station"}},{"type":"Feature","geometry":{"type":"Point","coordinates":[-99.1918,19.445]},"properties":{"id":"node/681448501","osm_type":"node","osm_id":681448501,"name":"San Joaquín","mode":"subway","system":"Metro","network":"STC Metro","operator":"Sistema de Transporte Colectivo","station":"subway","railway":"station","amenity":"","public_transport":"station"}},{"type":"Feature","geometry":{"type":"Point","coordinates":[-99.1855,19.3915]},"properties":{"id":"node/681454741","osm_type":"node","osm_id":681454741,"name":"San Pedro de los Pinos","mode":"subway","system":"Metro","network":"STC Metro","operator":"Sistema de Transporte Colectivo","station":"subway","railway":"station","amenity":"","public_transport":"station"}},{"type":"Feature","geometry":{"type":"Point","coordinates":[-99.1685,19.4059]},"properties":{"id":"node/842889550","osm_type":"node","osm_id":842889550,"name":"Chilpancingo","mode":"subway","system":"Metro","network":"STC Metro","operator":"Sistema de Transporte Colectivo","station":"subway","railway":"station","amenity":"","public_transport":"station"}},{"type":"Feature","geometry":{"type":"Point","coordinates":[-99.1708,19.372]},"properties":{"id":"node/2081866443","osm_type":"node","osm_id":2081866443,"name":"Hospital 20 de Noviembre","mode":"subway","system":"Metro","network":"STC Metro","operator":"Sistema de Transporte Colectivo","station":"subway","railway":"station","amenity":"","public_transport":"station"}},{"type":"Feature","geometry":{"type":"Point","coordinates":[-99.1719,19.4492]},"properties":{"id":"node/2084929420","osm_type":"node","osm_id":2084929420,"name":"Colegio Militar","mode":"subway","system":"Metro","network":"STC Metro","operator":"","station":"subway","railway":"station","amenity":"","public_transport":"station"}},{"type":"Feature","geometry":{"type":"Point","coordinates":[-99.1788,19.406]},"properties":{"id":"node/2266164095","osm_type":"node","osm_id":2266164095,"name":"Patriotismo","mode":"subway","system":"Metro","network":"STC Metro","operator":"Sistema de Transporte Colectivo","station":"subway","railway":"station","amenity":"","public_transport":"station"}},{"type":"Feature","geometry":{"type":"Point","coordinates":[-99.1706,19.422]},"properties":{"id":"node/4688809545","osm_type":"node","osm_id":4688809545,"name":"Sevilla","mode":"subway","system":"Metro","network":"STC Metro","operator":"","station":"subway","railway":"station","amenity":"","public_transport":"station"}},{"type":"Feature","geometry":{"type":"Point","coordinates":[-99.1709,19.3614]},"properties":{"id":"node/5335249518","osm_type":"node","osm_id":5335249518,"name":"Coyoacán","mode":"subway","system":"Metro","network":"STC Metro","operator":"","station":"subway","railway":"station","amenity":"","public_transport":"station"}},{"type":"Feature","geometry":{"type":"Point","coordinates":[-99.1751,19.3543]},"properties":{"id":"node/5335255558","osm_type":"node","osm_id":5335255558,"name":"Viveros-Derechos Humanos","mode":"subway","system":"Metro","network":"STC Metro","operator":"","station":"subway","railway":"station","amenity":"","public_transport":"station"}},{"type":"Feature","geometry":{"type":"Point","coordinates":[-99.1808,19.3462]},"properties":{"id":"node/5335259535","osm_type":"node","osm_id":5335259535,"name":"Miguel Ángel de Quevedo","mode":"subway","system":"Metro","network":"STC Metro","operator":"","station":"","railway":"station","amenity":"","public_transport":"station"}},{"type":"Feature","geometry":{"type":"Point","coordinates":[-99.1771,19.3361]},"properties":{"id":"node/5335263290","osm_type":"node","osm_id":5335263290,"name":"Copilco","mode":"subway","system":"Metro","network":"STC Metro","operator":"","station":"subway","railway":"station","amenity":"","public_transport":"station"}},{"type":"Feature","geometry":{"type":"Point","coordinates":[-99.1739,19.3245]},"properties":{"id":"node/5335271955","osm_type":"node","osm_id":5335271955,"name":"Universidad","mode":"subway","system":"Metro","network":"STC Metro","operator":"","station":"subway","railway":"station","amenity":"","public_transport":"station"}},{"type":"Feature","geometry":{"type":"Point","coordinates":[-99.1648,19.3707]},"properties":{"id":"node/5335289466","osm_type":"node","osm_id":5335289466,"name":"Zapata","mode":"subway","system":"Metro","network":"STC Metro","operator":"Sistema de Transporte Colectivo","station":"subway","railway":"station","amenity":"","public_transport":""}},{"type":"Feature","geometry":{"type":"Point","coordinates":[-99.1595,19.3792]},"properties":{"id":"node/5335301483","osm_type":"node","osm_id":5335301483,"name":"División del Norte","mode":"subway","system":"Metro","network":"STC Metro","operator":"","station":"","railway":"station","amenity":"","public_transport":"station"}},{"type":"Feature","geometry":{"type":"Point","coordinates":[-99.1572,19.3861]},"properties":{"id":"node/5335318010","osm_type":"node","osm_id":5335318010,"name":"Eugenia","mode":"subway","system":"Metro","network":"STC Metro","operator":"","station":"subway","railway":"station","amenity":"","public_transport":"station"}},{"type":"Feature","geometry":{"type":"Point","coordinates":[-99.1875,19.402]},"properties":{"id":"node/5335749332","osm_type":"node","osm_id":5335749332,"name":"Tacubaya","mode":"subway","system":"Metro","network":"STC Metro","operator":"Sistema de Transporte Colectivo","station":"subway","railway":"station","amenity":"","public_transport":"station"}},{"type":"Feature","geometry":{"type":"Point","coordinates":[-99.182,19.413]},"properties":{"id":"node/5335750526","osm_type":"node","osm_id":5335750526,"name":"Juanacatlán","mode":"subway","system":"Metro","network":"STC Metro","operator":"Sistema de Transporte Colectivo","station":"subway","railway":"station","amenity":"","public_transport":"station"}},{"type":"Feature","geometry":{"type":"Point","coordinates":[-99.1768,19.4207]},"properties":{"id":"node/5335762554","osm_type":"node","osm_id":5335762554,"name":"Chapultepec","mode":"subway","system":"Metro","network":"STC Metro","operator":"","station":"subway","railway":"station","amenity":"","public_transport":"station"}},{"type":"Feature","geometry":{"type":"Point","coordinates":[-99.1755,19.4529]},"properties":{"id":"node/5339541353","osm_type":"node","osm_id":5339541353,"name":"Popotla","mode":"subway","system":"Metro","network":"STC Metro","operator":"","station":"subway","railway":"station","amenity":"","public_transport":"station"}},{"type":"Feature","geometry":{"type":"Point","coordinates":[-99.1674,19.4446]},"properties":{"id":"node/5339546329","osm_type":"node","osm_id":5339546329,"name":"Normal","mode":"subway","system":"Metro","network":"STC Metro","operator":"","station":"subway","railway":"station","amenity":"","public_transport":"station"}},{"type":"Feature","geometry":{"type":"Point","coordinates":[-99.154,19.4391]},"properties":{"id":"node/5339546600","osm_type":"node","osm_id":5339546600,"name":"Revolución","mode":"subway","system":"Metro","network":"STC Metro","operator":"","station":"subway","railway":"station","amenity":"","public_transport":"station"}},{"type":"Feature","geometry":{"type":"Point","coordinates":[-99.1607,19.4419]},"properties":{"id":"node/5339549119","osm_type":"node","osm_id":5339549119,"name":"San Cosme","mode":"subway","system":"Metro","network":"STC Metro","operator":"","station":"subway","railway":"station","amenity":"","public_transport":"station"}},{"type":"Feature","geometry":{"type":"Point","coordinates":[-99.1552,19.4065]},"properties":{"id":"node/5383932843","osm_type":"node","osm_id":5383932843,"name":"Centro Médico","mode":"subway","system":"Metro","network":"STC Metro","operator":"Sistema de Transporte Colectivo","station":"subway","railway":"station","amenity":"","public_transport":"station"}},{"type":"Feature","geometry":{"type":"Point","coordinates":[-99.1533,19.4137]},"properties":{"id":"node/10171375840","osm_type":"node","osm_id":10171375840,"name":"Hospital General","mode":"subway","system":"Metro","network":"STC Metro","operator":"","station":"subway","railway":"station","amenity":"","public_transport":"station"}},{"type":"Feature","geometry":{"type":"Point","coordinates":[-99.156,19.396]},"properties":{"id":"node/10564807710","osm_type":"node","osm_id":10564807710,"name":"Etiopía/Plaza de la Transparencia","mode":"subway","system":"Metro","network":"STC Metro","operator":"","station":"subway","railway":"station","amenity":"","public_transport":"station"}},{"type":"Feature","geometry":{"type":"Point","coordinates":[-99.1633,19.4236]},"properties":{"id":"node/11323110136","osm_type":"node","osm_id":11323110136,"name":"Insurgentes","mode":"subway","system":"Metro","network":"STC Metro","operator":"","station":"subway","railway":"station","amenity":"","public_transport":"station"}},{"type":"Feature","geometry":{"type":"Point","coordinates":[-99.1588,19.3706]},"properties":{"id":"node/12602265863","osm_type":"node","osm_id":12602265863,"name":"Parque de los Venados","mode":"subway","system":"Metro","network":"STC Metro","operator":"Sistema de Transporte Colectivo","station":"subway","railway":"station","amenity":"","public_transport":"station"}},{"type":"Feature","geometry":{"type":"Point","coordinates":[-99.1784,19.3736]},"properties":{"id":"node/12603540631","osm_type":"node","osm_id":12603540631,"name":"Metro Insurgentes Sur","mode":"subway","system":"Metro","network":"Metro CDMX","operator":"Sistema de Transporte Colectivo","station":"subway","railway":"station","amenity":"","public_transport":"station"}},{"type":"Feature","geometry":{"type":"Point","coordinates":[-99.1546,19.4257]},"properties":{"id":"node/13096079164","osm_type":"node","osm_id":13096079164,"name":"Cuauhtémoc","mode":"subway","system":"Metro","network":"STC Metro","operator":"","station":"subway","railway":"station","amenity":"","public_transport":"station"}},{"type":"Feature","geometry":{"type":"Point","coordinates":[-99.1872,19.3761]},"properties":{"id":"way/30089614","osm_type":"way","osm_id":30089614,"name":"L7 - Metro Mixcoac","mode":"subway","system":"Metro","network":"STC Metro","operator":"","station":"","railway":"","amenity":"","public_transport":"station"}},{"type":"Feature","geometry":{"type":"Point","coordinates":[-99.2004,19.3983]},"properties":{"id":"way/217419203","osm_type":"way","osm_id":217419203,"name":"Observatorio","mode":"subway","system":"Metro","network":"STC Metro","operator":"","station":"subway","railway":"station","amenity":"","public_transport":"station"}},{"type":"Feature","geometry":{"type":"Point","coordinates":[-99.2364,19.3849]},"properties":{"id":"way/977916473","osm_type":"way","osm_id":977916473,"name":"Vasco de Quiroga","mode":"regional_rail","system":"Regional rail","network":"Tren Interurbano México-Toluca","operator":"FONADIN","station":"","railway":"station","amenity":"","public_transport":"station"}},{"type":"Feature","geometry":{"type":"Point","coordinates":[-99.1913,19.4131]},"properties":{"id":"way/1080401853","osm_type":"way","osm_id":1080401853,"name":"Los Pinos / Constituyentes","mode":"cable_car","system":"Cable car","network":"","operator":"Sistema de Transporte Público Cablebús","station":"","railway":"","amenity":"","public_transport":"station"}},{"type":"Feature","geometry":{"type":"Point","coordinates":[-99.201,19.4073]},"properties":{"id":"way/1080401854","osm_type":"way","osm_id":1080401854,"name":"Panteón Dolores","mode":"cable_car","system":"Cable car","network":"","operator":"Sistema de Transporte Público Cablebús","station":"","railway":"","amenity":"","public_transport":"station"}},{"type":"Feature","geometry":{"type":"Point","coordinates":[-99.1878,19.4025]},"properties":{"id":"way/1258735833","osm_type":"way","osm_id":1258735833,"name":"Tacubaya L1","mode":"subway","system":"Metro","network":"STC Metro","operator":"","station":"subway","railway":"station","amenity":"","public_transport":"station"}},{"type":"Feature","geometry":{"type":"Point","coordinates":[-99.1879,19.4011]},"properties":{"id":"way/1258748282","osm_type":"way","osm_id":1258748282,"name":"Tacubaya L9","mode":"subway","system":"Metro","network":"STC Metro","operator":"","station":"subway","railway":"station","amenity":"","public_transport":"station"}},{"type":"Feature","geometry":{"type":"Point","coordinates":[-99.1545,19.4392]},"properties":{"id":"way/1258845242","osm_type":"way","osm_id":1258845242,"name":"Revolución","mode":"subway","system":"Metro","network":"","operator":"","station":"subway","railway":"station","amenity":"","public_transport":"station"}},{"type":"Feature","geometry":{"type":"Point","coordinates":[-99.156,19.3959]},"properties":{"id":"way/1258850656","osm_type":"way","osm_id":1258850656,"name":"Etiopía","mode":"subway","system":"Metro","network":"","operator":"","station":"subway","railway":"station","amenity":"","public_transport":"station"}},{"type":"Feature","geometry":{"type":"Point","coordinates":[-99.2318,19.3841]},"properties":{"id":"way/1315197090","osm_type":"way","osm_id":1315197090,"name":"Vasco de Quiroga","mode":"cable_car","system":"Cable car","network":"Cablebús","operator":"Servicio de Transportes Eléctricos de la Ciudad de México","station":"","railway":"","amenity":"","public_transport":"station"}},{"type":"Feature","geometry":{"type":"Point","coordinates":[-99.1561,19.4066]},"properties":{"id":"way/1365082943","osm_type":"way","osm_id":1365082943,"name":"Centro Médico L9","mode":"subway","system":"Metro","network":"STC Metro","operator":"","station":"subway","railway":"station","amenity":"","public_transport":"station"}},{"type":"Feature","geometry":{"type":"Point","coordinates":[-99.1551,19.4072]},"properties":{"id":"way/1365082945","osm_type":"way","osm_id":1365082945,"name":"Centro Médico L3","mode":"subway","system":"Metro","network":"STC Metro","operator":"","station":"subway","railway":"station","amenity":"","public_transport":"station"}},{"type":"Feature","geometry":{"type":"Point","coordinates":[-99.1524,19.4463]},"properties":{"id":"way/1366670740","osm_type":"way","osm_id":1366670740,"name":"Buenavista","mode":"subway","system":"Metro","network":"STC Metro","operator":"","station":"subway","railway":"station","amenity":"","public_transport":"station"}},{"type":"Feature","geometry":{"type":"Point","coordinates":[-99.1547,19.4256]},"properties":{"id":"way/1366674400","osm_type":"way","osm_id":1366674400,"name":"Cuauhtémoc","mode":"subway","system":"Metro","network":"STC Metro","operator":"","station":"","railway":"","amenity":"","public_transport":"station"}},{"type":"Feature","geometry":{"type":"Point","coordinates":[-99.1865,19.3757]},"properties":{"id":"way/1366694389","osm_type":"way","osm_id":1366694389,"name":"Mixcoac L12","mode":"subway","system":"Metro","network":"Metro CDMX","operator":"","station":"subway","railway":"station","amenity":"","public_transport":"station"}},{"type":"Feature","geometry":{"type":"Point","coordinates":[-99.1645,19.3714]},"properties":{"id":"way/1366701357","osm_type":"way","osm_id":1366701357,"name":"Zapata L3","mode":"subway","system":"Metro","network":"STC Metro","operator":"","station":"","railway":"","amenity":"","public_transport":"station"}},{"type":"Feature","geometry":{"type":"Point","coordinates":[-99.1656,19.3708]},"properties":{"id":"way/1366701359","osm_type":"way","osm_id":1366701359,"name":"Zapata L12","mode":"subway","system":"Metro","network":"STC Metro","operator":"","station":"","railway":"","amenity":"","public_transport":"station"}},{"type":"Feature","geometry":{"type":"Point","coordinates":[-99.2534,19.4457]},"properties":{"id":"way/1370497267","osm_type":"way","osm_id":1370497267,"name":"La Tolva","mode":"cable_car","system":"Cable car","network":"Mexicable Línea 3","operator":"Mexicable","station":"","railway":"","amenity":"","public_transport":"station"}},{"type":"Feature","geometry":{"type":"Point","coordinates":[-99.2008,19.3985]},"properties":{"id":"way/1375358305","osm_type":"way","osm_id":1375358305,"name":"Observatorio","mode":"regional_rail","system":"Regional rail","network":"El Insurgente","operator":"FONADIN","station":"","railway":"station","amenity":"","public_transport":"station"}},{"type":"Feature","geometry":{"type":"Point","coordinates":[-99.2492,19.45]},"properties":{"id":"way/1492959229","osm_type":"way","osm_id":1492959229,"name":"Centenario","mode":"cable_car","system":"Cable car","network":"Mexicable Línea 3","operator":"Mexicable","station":"","railway":"","amenity":"","public_transport":"station"}},{"type":"Feature","geometry":{"type":"Point","coordinates":[-99.1868,19.4021]},"properties":{"id":"relation/17318665","osm_type":"relation","osm_id":17318665,"name":"Tacubaya L7","mode":"subway","system":"Metro","network":"STC Metro","operator":"","station":"subway","railway":"station","amenity":"","public_transport":"station"}},{"type":"Feature","geometry":{"type":"Point","coordinates":[-99.1878,19.3762]},"properties":{"id":"relation/18815542","osm_type":"relation","osm_id":18815542,"name":"Mixcoac L7","mode":"subway","system":"Metro","network":"STC Metro","operator":"","station":"subway","railway":"station","amenity":"","public_transport":"station"}},{"type":"Feature","geometry":{"type":"Point","coordinates":[-99.2221,19.3968]},"properties":{"id":"relation/19353601","osm_type":"relation","osm_id":19353601,"name":"PARCUR / Colegio de Arquitectos","mode":"cable_car","system":"Cable car","network":"Cablebús","operator":"Servicio de Transportes Eléctricos de la Ciudad de México","station":"","railway":"","amenity":"","public_transport":"station"}},{"type":"Feature","geometry":{"type":"Point","coordinates":[-99.229,19.3912]},"properties":{"id":"relation/19353602","osm_type":"relation","osm_id":19353602,"name":"Cineteca Nacional / Bodega de Arte","mode":"cable_car","system":"Cable car","network":"Cablebús","operator":"Servicio de Transportes Eléctricos de la Ciudad de México","station":"","railway":"","amenity":"","public_transport":"station"}},{"type":"Feature","geometry":{"type":"Point","coordinates":[-99.213,19.3997]},"properties":{"id":"relation/19353603","osm_type":"relation","osm_id":19353603,"name":"Charrería","mode":"cable_car","system":"Cable car","network":"Cablebús","operator":"Servicio de Transportes Eléctricos","station":"","railway":"","amenity":"","public_transport":"station"}},{"type":"Feature","geometry":{"type":"Point","coordinates":[-99.145,19.3533]},"properties":{"id":"node/30384902","osm_type":"node","osm_id":30384902,"name":"General Anaya","mode":"subway","system":"Metro","network":"STC Metro","operator":"Sistema de Transporte Colectivo","station":"subway","railway":"station","amenity":"","public_transport":"station"}},{"type":"Feature","geometry":{"type":"Point","coordinates":[-99.1416,19.3698]},"properties":{"id":"node/30385126","osm_type":"node","osm_id":30385126,"name":"Portales","mode":"subway","system":"Metro","network":"STC Metro","operator":"Sistema de Transporte Colectivo","station":"subway","railway":"station","amenity":"","public_transport":"station"}},{"type":"Feature","geometry":{"type":"Point","coordinates":[-99.1402,19.3794]},"properties":{"id":"node/30385133","osm_type":"node","osm_id":30385133,"name":"Nativitas","mode":"subway","system":"Metro","network":"STC Metro","operator":"Sistema de Transporte Colectivo","station":"subway","railway":"station","amenity":"","public_transport":"station"}},{"type":"Feature","geometry":{"type":"Point","coordinates":[-99.139,19.3876]},"properties":{"id":"node/30385139","osm_type":"node","osm_id":30385139,"name":"Villa de Cortés","mode":"subway","system":"Metro","network":"STC Metro","operator":"Sistema de Transporte Colectivo","station":"subway","railway":"station","amenity":"","public_transport":"station"}},{"type":"Feature","geometry":{"type":"Point","coordinates":[-99.1378,19.3952]},"properties":{"id":"node/30385145","osm_type":"node","osm_id":30385145,"name":"Xola","mode":"subway","system":"Metro","network":"STC Metro","operator":"Sistema de Transporte Colectivo","station":"subway","railway":"station","amenity":"","public_transport":"station"}},{"type":"Feature","geometry":{"type":"Point","coordinates":[-99.1369,19.4008]},"properties":{"id":"node/30385148","osm_type":"node","osm_id":30385148,"name":"Viaducto","mode":"subway","system":"Metro","network":"STC Metro","operator":"Sistema de Transporte Colectivo","station":"subway","railway":"station","amenity":"","public_transport":"station"}},{"type":"Feature","geometry":{"type":"Point","coordinates":[-99.1444,19.4071]},"properties":{"id":"node/294082204","osm_type":"node","osm_id":294082204,"name":"Lázaro Cárdenas","mode":"subway","system":"Metro","network":"STC Metro","operator":"Sistema de Transporte Colectivo","station":"subway","railway":"station","amenity":"","public_transport":"station"}},{"type":"Feature","geometry":{"type":"Point","coordinates":[-99.0903,19.4164]},"properties":{"id":"node/294086737","osm_type":"node","osm_id":294086737,"name":"Gómez Farías","mode":"subway","system":"Metro","network":"STC Metro","operator":"","station":"subway","railway":"station","amenity":"","public_transport":"station"}},{"type":"Feature","geometry":{"type":"Point","coordinates":[-99.1421,19.4268]},"properties":{"id":"node/294088991","osm_type":"node","osm_id":294088991,"name":"Salto del Agua","mode":"subway","system":"Metro","network":"STC Metro","operator":"Sistema de Transporte Colectivo","station":"subway","railway":"station","amenity":"","public_transport":"station"}},{"type":"Feature","geometry":{"type":"Point","coordinates":[-99.0836,19.4356]},"properties":{"id":"node/332582398","osm_type":"node","osm_id":332582398,"name":"Terminal 1","mode":"monorail","system":"Monorail","network":"","operator":"Grupo Aeroportuario de la Ciudad de México","station":"monorail","railway":"station","amenity":"","public_transport":"station"}},{"type":"Feature","geometry":{"type":"Point","coordinates":[-99.0637,19.3459]},"properties":{"id":"node/506035217","osm_type":"node","osm_id":506035217,"name":"Constitución de 1917","mode":"subway","system":"Metro","network":"STC Metro","operator":"Sistema de Transporte Colectivo","station":"subway","railway":"station","amenity":"","public_transport":"station"}},{"type":"Feature","geometry":{"type":"Point","coordinates":[-99.0857,19.356]},"properties":{"id":"node/554750099","osm_type":"node","osm_id":554750099,"name":"Cerro de la Estrella","mode":"subway","system":"Metro","network":"STC Metro","operator":"Sistema de Transporte Colectivo","station":"subway","railway":"station","amenity":"","public_transport":"station"}},{"type":"Feature","geometry":{"type":"Point","coordinates":[-99.0748,19.351]},"properties":{"id":"node/554754754","osm_type":"node","osm_id":554754754,"name":"UAM-I","mode":"subway","system":"Metro","network":"STC Metro","operator":"Sistema de Transporte Colectivo","station":"subway","railway":"station","amenity":"","public_transport":"station"}},{"type":"Feature","geometry":{"type":"Point","coordinates":[-99.1095,19.3792]},"properties":{"id":"node/555064969","osm_type":"node","osm_id":555064969,"name":"Apatlaco","mode":"subway","system":"Metro","network":"STC Metro","operator":"Sistema de Transporte Colectivo","station":"subway","railway":"station","amenity":"","public_transport":"station"}},{"type":"Feature","geometry":{"type":"Point","coordinates":[-99.112,19.3881]},"properties":{"id":"node/555065028","osm_type":"node","osm_id":555065028,"name":"Iztacalco","mode":"subway","system":"Metro","network":"STC Metro","operator":"Sistema de Transporte Colectivo","station":"subway","railway":"station","amenity":"","public_transport":"station"}},{"type":"Feature","geometry":{"type":"Point","coordinates":[-99.1095,19.3649]},"properties":{"id":"node/555066276","osm_type":"node","osm_id":555066276,"name":"Escuadrón 201","mode":"subway","system":"Metro","network":"STC Metro","operator":"Sistema de Transporte Colectivo","station":"subway","railway":"station","amenity":"","public_transport":"station"}},{"type":"Feature","geometry":{"type":"Point","coordinates":[-99.1077,19.3733]},"properties":{"id":"node/555066702","osm_type":"node","osm_id":555066702,"name":"Aculco","mode":"subway","system":"Metro","network":"STC Metro","operator":"Sistema de Transporte Colectivo","station":"subway","railway":"station","amenity":"","public_transport":"station"}},{"type":"Feature","geometry":{"type":"Point","coordinates":[-99.1126,19.4083]},"properties":{"id":"node/555069072","osm_type":"node","osm_id":555069072,"name":"Mixiuhca","mode":"subway","system":"Metro","network":"STC Metro","operator":"Sistema de Transporte Colectivo","station":"subway","railway":"station","amenity":"","public_transport":"station"}},{"type":"Feature","geometry":{"type":"Point","coordinates":[-99.1263,19.4067]},"properties":{"id":"node/555079051","osm_type":"node","osm_id":555079051,"name":"La Viga","mode":"subway","system":"Metro","network":"STC Metro","operator":"Sistema de Transporte Colectivo","station":"subway","railway":"station","amenity":"","public_transport":"station"}},{"type":"Feature","geometry":{"type":"Point","coordinates":[-99.144,19.4132]},"properties":{"id":"node/555079073","osm_type":"node","osm_id":555079073,"name":"Obrera","mode":"subway","system":"Metro","network":"STC Metro","operator":"Sistema de Transporte Colectivo","station":"subway","railway":"station","amenity":"","public_transport":"station"}},{"type":"Feature","geometry":{"type":"Point","coordinates":[-99.1432,19.4214]},"properties":{"id":"node/555079083","osm_type":"node","osm_id":555079083,"name":"Doctores","mode":"subway","system":"Metro","network":"STC Metro","operator":"Sistema de Transporte Colectivo","station":"subway","railway":"station","amenity":"","public_transport":"station"}},{"type":"Feature","geometry":{"type":"Point","coordinates":[-99.1413,19.4313]},"properties":{"id":"node/555081970","osm_type":"node","osm_id":555081970,"name":"San Juan de Letrán","mode":"subway","system":"Metro","network":"STC Metro","operator":"Sistema de Transporte Colectivo","station":"subway","railway":"station","amenity":"","public_transport":"station"}},{"type":"Feature","geometry":{"type":"Point","coordinates":[-99.0789,19.421]},"properties":{"id":"node/1111845446","osm_type":"node","osm_id":1111845446,"name":"Terminal 2","mode":"monorail","system":"Monorail","network":"","operator":"Grupo Aeroportuario de la Ciudad de México","station":"monorail","railway":"station","amenity":"","public_transport":"station"}},{"type":"Feature","geometry":{"type":"Point","coordinates":[-99.1405,19.3437]},"properties":{"id":"node/1130113868","osm_type":"node","osm_id":1130113868,"name":"Tasqueña","mode":"light_rail","system":"Light rail","network":"STE Tren Ligero","operator":"Servicio de Transportes Eléctricos de la Ciudad de México","station":"light_rail","railway":"station","amenity":"","public_transport":"station"}},{"type":"Feature","geometry":{"type":"Point","coordinates":[-99.0594,19.3988]},"properties":{"id":"node/1155521581","osm_type":"node","osm_id":1155521581,"name":"Canal de San Juan","mode":"subway","system":"Metro","network":"STC Metro","operator":"Sistema de Transporte Colectivo","station":"subway","railway":"station","amenity":"","public_transport":"station"}},{"type":"Feature","geometry":{"type":"Point","coordinates":[-99.0695,19.4046]},"properties":{"id":"node/1155521678","osm_type":"node","osm_id":1155521678,"name":"Agrícola Oriental","mode":"subway","system":"Metro","network":"STC Metro","operator":"Sistema de Transporte Colectivo","station":"subway","railway":"station","amenity":"","public_transport":"station"}},{"type":"Feature","geometry":{"type":"Point","coordinates":[-99.0963,19.4199]},"properties":{"id":"node/1155638742","osm_type":"node","osm_id":1155638742,"name":"Boulevard Puerto Aéreo","mode":"subway","system":"Metro","network":"STC Metro","operator":"","station":"","railway":"station","amenity":"","public_transport":"station"}},{"type":"Feature","geometry":{"type":"Point","coordinates":[-99.0827,19.4121]},"properties":{"id":"node/1155638781","osm_type":"node","osm_id":1155638781,"name":"Zaragoza","mode":"subway","system":"Metro","network":"STC Metro","operator":"","station":"subway","railway":"station","amenity":"","public_transport":"station"}},{"type":"Feature","geometry":{"type":"Point","coordinates":[-99.1255,19.4255]},"properties":{"id":"node/1155680835","osm_type":"node","osm_id":1155680835,"name":"Merced","mode":"subway","system":"Metro","network":"STC Metro","operator":"","station":"subway","railway":"station","amenity":"","public_transport":"station"}},{"type":"Feature","geometry":{"type":"Point","coordinates":[-99.1378,19.4264]},"properties":{"id":"node/1158001795","osm_type":"node","osm_id":1158001795,"name":"Isabel la Católica","mode":"subway","system":"Metro","network":"STC Metro","operator":"","station":"subway","railway":"station","amenity":"","public_transport":"station"}},{"type":"Feature","geometry":{"type":"Point","coordinates":[-99.1515,19.3614]},"properties":{"id":"node/2081866441","osm_type":"node","osm_id":2081866441,"name":"Eje Central","mode":"subway","system":"Metro","network":"STC Metro","operator":"Sistema de Transporte Colectivo","station":"subway","railway":"station","amenity":"","public_transport":"station"}},{"type":"Feature","geometry":{"type":"Point","coordinates":[-99.0957,19.3222]},"properties":{"id":"node/2081866445","osm_type":"node","osm_id":2081866445,"name":"Lomas Estrella","mode":"subway","system":"Metro","network":"STC Metro","operator":"Sistema de Transporte Colectivo","station":"subway","railway":"station","amenity":"","public_transport":"station"}},{"type":"Feature","geometry":{"type":"Point","coordinates":[-99.0859,19.3205]},"properties":{"id":"node/2081866446","osm_type":"node","osm_id":2081866446,"name":"Calle 11","mode":"subway","system":"Metro","network":"STC Metro","operator":"Sistema de Transporte Colectivo","station":"subway","railway":"station","amenity":"","public_transport":"station"}},{"type":"Feature","geometry":{"type":"Point","coordinates":[-99.1227,19.3577]},"properties":{"id":"node/2081866456","osm_type":"node","osm_id":2081866456,"name":"Mexicaltzingo","mode":"subway","system":"Metro","network":"STC Metro","operator":"Sistema de Transporte Colectivo","station":"subway","railway":"station","amenity":"","public_transport":"station"}},{"type":"Feature","geometry":{"type":"Point","coordinates":[-99.1089,19.3369]},"properties":{"id":"node/2081866461","osm_type":"node","osm_id":2081866461,"name":"Culhuacán","mode":"subway","system":"Metro","network":"STC Metro","operator":"Sistema de Transporte Colectivo","station":"subway","railway":"station","amenity":"","public_transport":"station"}},{"type":"Feature","geometry":{"type":"Point","coordinates":[-99.1161,19.4488]},"properties":{"id":"node/2160084598","osm_type":"node","osm_id":2160084598,"name":"Canal del Norte","mode":"subway","system":"Metro","network":"STC Metro","operator":"Sistema de Transporte Colectivo","station":"subway","railway":"station","amenity":"","public_transport":"station"}},{"type":"Feature","geometry":{"type":"Point","coordinates":[-99.1194,19.4288]},"properties":{"id":"node/2266125571","osm_type":"node","osm_id":2266125571,"name":"Candelaria L4","mode":"subway","system":"Metro","network":"STC Metro","operator":"","station":"subway","railway":"station","amenity":"","public_transport":"station"}},{"type":"Feature","geometry":{"type":"Point","coordinates":[-99.1205,19.4216]},"properties":{"id":"node/2266125613","osm_type":"node","osm_id":2266125613,"name":"Fray Servando","mode":"subway","system":"Metro","network":"STC Metro","operator":"Sistema de Transporte Colectivo","station":"subway","railway":"station","amenity":"","public_transport":"station"}},{"type":"Feature","geometry":{"type":"Point","coordinates":[-99.1217,19.4109]},"properties":{"id":"node/2266125668","osm_type":"node","osm_id":2266125668,"name":"Jamaica","mode":"subway","system":"Metro","network":"STC Metro","operator":"","station":"subway","railway":"station","amenity":"","public_transport":"station"}},{"type":"Feature","geometry":{"type":"Point","coordinates":[-99.1044,19.3281]},"properties":{"id":"node/2663332312","osm_type":"node","osm_id":2663332312,"name":"San Andrés Tomatlán","mode":"subway","system":"Metro","network":"STC Metro","operator":"Sistema de Transporte Colectivo","station":"subway","railway":"station","amenity":"","public_transport":"station"}},{"type":"Feature","geometry":{"type":"Point","coordinates":[-99.1434,19.3408]},"properties":{"id":"node/3016464458","osm_type":"node","osm_id":3016464458,"name":"Las Torres","mode":"light_rail","system":"Light rail","network":"Tren Ligero","operator":"Servicio de Transportes Eléctricos de la Ciudad de México","station":"light_rail","railway":"station","amenity":"","public_transport":"station"}},{"type":"Feature","geometry":{"type":"Point","coordinates":[-99.1419,19.3358]},"properties":{"id":"node/3016544532","osm_type":"node","osm_id":3016544532,"name":"Ciudad Jardín","mode":"light_rail","system":"Light rail","network":"Tren Ligero","operator":"Servicio de Transportes Eléctricos de la Ciudad de México","station":"light_rail","railway":"station","amenity":"","public_transport":"station"}},{"type":"Feature","geometry":{"type":"Point","coordinates":[-99.1406,19.3317]},"properties":{"id":"node/3021939899","osm_type":"node","osm_id":3021939899,"name":"La Virgen","mode":"light_rail","system":"Light rail","network":"Tren Ligero","operator":"Servicio de Transportes Eléctricos de la Ciudad de México","station":"light_rail","railway":"station","amenity":"","public_transport":"station"}},{"type":"Feature","geometry":{"type":"Point","coordinates":[-99.1393,19.3275]},"properties":{"id":"node/3021948067","osm_type":"node","osm_id":3021948067,"name":"Xotepingo","mode":"light_rail","system":"Light rail","network":"Tren Ligero","operator":"Servicio de Transportes Eléctricos de la Ciudad de México","station":"light_rail","railway":"station","amenity":"","public_transport":"station"}},{"type":"Feature","geometry":{"type":"Point","coordinates":[-99.1382,19.3238]},"properties":{"id":"node/3021958260","osm_type":"node","osm_id":3021958260,"name":"Nezahualpilli","mode":"light_rail","system":"Light rail","network":"Tren Ligero","operator":"Servicio de Transportes Eléctricos de la Ciudad de México","station":"light_rail","railway":"station","amenity":"","public_transport":"station"}},{"type":"Feature","geometry":{"type":"Point","coordinates":[-99.1397,19.3438]},"properties":{"id":"node/3649087197","osm_type":"node","osm_id":3649087197,"name":"Tasqueña","mode":"subway","system":"Metro","network":"STC Metro","operator":"Sistema de Transporte Colectivo","station":"subway","railway":"station","amenity":"","public_transport":"station"}},{"type":"Feature","geometry":{"type":"Point","coordinates":[-99.1135,19.3983]},"properties":{"id":"node/3649370809","osm_type":"node","osm_id":3649370809,"name":"Coyuya","mode":"subway","system":"Metro","network":"STC Metro","operator":"Sistema de Transporte Colectivo","station":"subway","railway":"station","amenity":"","public_transport":"station"}},{"type":"Feature","geometry":{"type":"Point","coordinates":[-99.0936,19.3577]},"properties":{"id":"node/3692692973","osm_type":"node","osm_id":3692692973,"name":"Iztapalapa","mode":"subway","system":"Metro","network":"STC Metro","operator":"Sistema de Transporte Colectivo","station":"subway","railway":"station","amenity":"","public_transport":"station"}},{"type":"Feature","geometry":{"type":"Point","coordinates":[-99.1152,19.4312]},"properties":{"id":"node/4208310089","osm_type":"node","osm_id":4208310089,"name":"San Lázaro","mode":"brt","system":"BRT","network":"Metrobús","operator":"Secretaría de Movilidad (SEMOVI)","station":"","railway":"","amenity":"bus_station","public_transport":"station"}},{"type":"Feature","geometry":{"type":"Point","coordinates":[-99.1153,19.4304]},"properties":{"id":"node/4208310090","osm_type":"node","osm_id":4208310090,"name":"San Lázaro","mode":"brt","system":"BRT","network":"Metrobús","operator":"Secretaría de Movilidad (SEMOVI)","station":"","railway":"","amenity":"bus_station","public_transport":"station"}},{"type":"Feature","geometry":{"type":"Point","coordinates":[-99.1144,19.4372]},"properties":{"id":"node/4213178089","osm_type":"node","osm_id":4213178089,"name":"Archivo General de la Nación","mode":"brt","system":"BRT","network":"Metrobús","operator":"Secretaría de Movilidad (SEMOVI)","station":"","railway":"","amenity":"bus_station","public_transport":"station"}},{"type":"Feature","geometry":{"type":"Point","coordinates":[-99.1523,19.4448]},"properties":{"id":"node/4213178091","osm_type":"node","osm_id":4213178091,"name":"Metrobús Linea 4","mode":"brt","system":"BRT","network":"","operator":"Metrobús","station":"","railway":"","amenity":"bus_station","public_transport":"station"}},{"type":"Feature","geometry":{"type":"Point","coordinates":[-99.1098,19.4265]},"properties":{"id":"node/4923087436","osm_type":"node","osm_id":4923087436,"name":"Moctezuma","mode":"subway","system":"Metro","network":"STC Metro","operator":"","station":"subway","railway":"station","amenity":"","public_transport":"station"}},{"type":"Feature","geometry":{"type":"Point","coordinates":[-99.1452,19.4449]},"properties":{"id":"node/5335244209","osm_type":"node","osm_id":5335244209,"name":"Guerrero","mode":"subway","system":"Metro","network":"STC Metro","operator":"Sistema de Transporte Colectivo","station":"subway","railway":"station","amenity":"","public_transport":"station"}},{"type":"Feature","geometry":{"type":"Point","coordinates":[-99.1503,19.4194]},"properties":{"id":"node/5335683975","osm_type":"node","osm_id":5335683975,"name":"Niños Héroes","mode":"subway","system":"Metro","network":"STC Metro","operator":"","station":"subway","railway":"station","amenity":"","public_transport":"station"}},{"type":"Feature","geometry":{"type":"Point","coordinates":[-99.149,19.4271]},"properties":{"id":"node/5335688062","osm_type":"node","osm_id":5335688062,"name":"Balderas","mode":"subway","system":"Metro","network":"STC Metro","operator":"Sistema de Transporte Colectivo","station":"subway","railway":"station","amenity":"","public_transport":"station"}},{"type":"Feature","geometry":{"type":"Point","coordinates":[-99.1432,19.455]},"properties":{"id":"node/5335704171","osm_type":"node","osm_id":5335704171,"name":"Tlatelolco","mode":"subway","system":"Metro","network":"STC Metro","operator":"","station":"subway","railway":"station","amenity":"","public_transport":"station"}},{"type":"Feature","geometry":{"type":"Point","coordinates":[-99.133,19.4259]},"properties":{"id":"node/5335789644","osm_type":"node","osm_id":5335789644,"name":"Pino Suárez","mode":"subway","system":"Metro","network":"STC Metro","operator":"Sistema de Transporte Colectivo","station":"subway","railway":"station","amenity":"","public_transport":"station"}},{"type":"Feature","geometry":{"type":"Point","coordinates":[-99.1209,19.4296]},"properties":{"id":"node/5337579689","osm_type":"node","osm_id":5337579689,"name":"Candelaria L1","mode":"subway","system":"Metro","network":"STC Metro","operator":"Sistema de Transporte Colectivo","station":"subway","railway":"station","amenity":"","public_transport":"station"}},{"type":"Feature","geometry":{"type":"Point","coordinates":[-99.1024,19.4231]},"properties":{"id":"node/5337596249","osm_type":"node","osm_id":5337596249,"name":"Balbuena","mode":"subway","system":"Metro","network":"STC Metro","operator":"","station":"subway","railway":"station","amenity":"","public_transport":"station"}},{"type":"Feature","geometry":{"type":"Point","coordinates":[-99.1322,19.4325]},"properties":{"id":"node/5339555634","osm_type":"node","osm_id":5339555634,"name":"Zócalo/Tenochtitlan","mode":"subway","system":"Metro","network":"STC Metro","operator":"Sistema de Transporte Colectivo","station":"subway","railway":"station","amenity":"","public_transport":"station"}},{"type":"Feature","geometry":{"type":"Point","coordinates":[-99.1345,19.416]},"properties":{"id":"node/5339567361","osm_type":"node","osm_id":5339567361,"name":"San Antonio Abad","mode":"subway","system":"Metro","network":"STC Metro","operator":"","station":"subway","railway":"station","amenity":"","public_transport":"station"}},{"type":"Feature","geometry":{"type":"Point","coordinates":[-99.1355,19.4091]},"properties":{"id":"node/5339640805","osm_type":"node","osm_id":5339640805,"name":"Chabacano","mode":"subway","system":"Metro","network":"STC Metro","operator":"","station":"subway","railway":"station","amenity":"","public_transport":"station"}},{"type":"Feature","geometry":{"type":"Point","coordinates":[-99.0745,19.4152]},"properties":{"id":"node/5358430107","osm_type":"node","osm_id":5358430107,"name":"Pantitlán","mode":"subway","system":"Metro","network":"STC Metro","operator":"Sistema de Transporte Colectivo","station":"subway","railway":"station","amenity":"","public_transport":"station"}},{"type":"Feature","geometry":{"type":"Point","coordinates":[-99.1141,19.43]},"properties":{"id":"node/5358443126","osm_type":"node","osm_id":5358443126,"name":"San Lázaro","mode":"subway","system":"Metro","network":"STC Metro","operator":"Sistema de Transporte Colectivo","station":"subway","railway":"station","amenity":"","public_transport":"station"}},{"type":"Feature","geometry":{"type":"Point","coordinates":[-99.1388,19.4439]},"properties":{"id":"node/5358459287","osm_type":"node","osm_id":5358459287,"name":"Garibaldi-Lagunilla","mode":"subway","system":"Metro","network":"STC Metro","operator":"Sistema de Transporte Colectivo","station":"subway","railway":"station","amenity":"","public_transport":"station"}},{"type":"Feature","geometry":{"type":"Point","coordinates":[-99.0872,19.4457]},"properties":{"id":"node/5358462886","osm_type":"node","osm_id":5358462886,"name":"Oceanía","mode":"subway","system":"Metro","network":"STC Metro","operator":"Sistema de Transporte Colectivo","station":"subway","railway":"station","amenity":"","public_transport":"station"}},{"type":"Feature","geometry":{"type":"Point","coordinates":[-99.1215,19.4037]},"properties":{"id":"node/5383897872","osm_type":"node","osm_id":5383897872,"name":"Santa Anita","mode":"subway","system":"Metro","network":"STC Metro","operator":"Sistema de Transporte Colectivo","station":"subway","railway":"station","amenity":"","public_transport":"station"}},{"type":"Feature","geometry":{"type":"Point","coordinates":[-99.119,19.4397]},"properties":{"id":"node/5383914298","osm_type":"node","osm_id":5383914298,"name":"Morelos","mode":"subway","system":"Metro","network":"STC Metro","operator":"Sistema de Transporte Colectivo","station":"subway","railway":"station","amenity":"","public_transport":"station"}},{"type":"Feature","geometry":{"type":"Point","coordinates":[-99.0841,19.4129]},"properties":{"id":"node/5796761142","osm_type":"node","osm_id":5796761142,"name":"Terminal CETRAM Zaragoza","mode":"brt","system":"BRT","network":"Metrobus","operator":"Zaragoza","station":"","railway":"","amenity":"bus_station","public_transport":"station"}},{"type":"Feature","geometry":{"type":"Point","coordinates":[-99.0625,19.3449]},"properties":{"id":"node/6868354391","osm_type":"node","osm_id":6868354391,"name":"Constitución de 1917","mode":"cable_car","system":"Cable car","network":"Cablebús Línea 2","operator":"","station":"","railway":"","amenity":"","public_transport":"station"}},{"type":"Feature","geometry":{"type":"Point","coordinates":[-99.152,19.4474]},"properties":{"id":"node/6949058012","osm_type":"node","osm_id":6949058012,"name":"Buenavista","mode":"commuter_rail","system":"Commuter rail","network":"FC Suburbano de México","operator":"Ferrocarriles Suburbanos","station":"","railway":"station","amenity":"","public_transport":"station"}},{"type":"Feature","geometry":{"type":"Point","coordinates":[-99.1013,19.3555]},"properties":{"id":"node/7364482552","osm_type":"node","osm_id":7364482552,"name":"Atlalilco","mode":"subway","system":"Metro","network":"","operator":"","station":"subway","railway":"station","amenity":"","public_transport":""}},{"type":"Feature","geometry":{"type":"Point","coordinates":[-99.1135,19.3994]},"properties":{"id":"node/8750437785","osm_type":"node","osm_id":8750437785,"name":"Metro Coyuya","mode":"brt","system":"BRT","network":"Metrobús","operator":"Secretaría de Movilidad (SEMOVI)","station":"","railway":"","amenity":"bus_station","public_transport":"station"}},{"type":"Feature","geometry":{"type":"Point","coordinates":[-99.1114,19.4257]},"properties":{"id":"node/8769299185","osm_type":"node","osm_id":8769299185,"name":"Moctezuma","mode":"brt","system":"BRT","network":"Metrobús","operator":"Secretaría de Movilidad (SEMOVI)","station":"","railway":"","amenity":"bus_station","public_transport":"station"}},{"type":"Feature","geometry":{"type":"Point","coordinates":[-99.1371,19.4356]},"properties":{"id":"node/12307021668","osm_type":"node","osm_id":12307021668,"name":"Allende","mode":"subway","system":"Metro","network":"STC Metro","operator":"Sistema de Transporte Colectivo","station":"subway","railway":"station","amenity":"","public_transport":"station"}},{"type":"Feature","geometry":{"type":"Point","coordinates":[-99.1406,19.4362]},"properties":{"id":"node/12526124489","osm_type":"node","osm_id":12526124489,"name":"Bellas Artes","mode":"subway","system":"Metro","network":"STC Metro","operator":"","station":"subway","railway":"station","amenity":"","public_transport":"station"}},{"type":"Feature","geometry":{"type":"Point","coordinates":[-99.1219,19.4094]},"properties":{"id":"node/12662561163","osm_type":"node","osm_id":12662561163,"name":"Jamaica","mode":"subway","system":"Metro","network":"STC Metro","operator":"","station":"subway","railway":"station","amenity":"","public_transport":"station"}},{"type":"Feature","geometry":{"type":"Point","coordinates":[-99.1432,19.3601]},"properties":{"id":"node/12679525779","osm_type":"node","osm_id":12679525779,"name":"Ermita","mode":"subway","system":"Metro","network":"STC Metro","operator":"","station":"subway","railway":"station","amenity":"","public_transport":"station"}},{"type":"Feature","geometry":{"type":"Point","coordinates":[-99.1467,19.4374]},"properties":{"id":"node/12736564590","osm_type":"node","osm_id":12736564590,"name":"Hidalgo","mode":"subway","system":"Metro","network":"STC Metro","operator":"","station":"subway","railway":"station","amenity":"","public_transport":"station"}},{"type":"Feature","geometry":{"type":"Point","coordinates":[-99.0792,19.4511]},"properties":{"id":"node/13089350845","osm_type":"node","osm_id":13089350845,"name":"Deportivo Oceanía","mode":"subway","system":"Metro","network":"STC Metro","operator":"Sistema de Transporte Colectivo","station":"subway","railway":"station","amenity":"","public_transport":"station"}},{"type":"Feature","geometry":{"type":"Point","coordinates":[-99.0825,19.4072]},"properties":{"id":"node/13092458094","osm_type":"node","osm_id":13092458094,"name":"Puebla","mode":"subway","system":"Metro","network":"STC Metro","operator":"Sistema de Transporte Colectivo","station":"subway","railway":"station","amenity":"","public_transport":"station"}},{"type":"Feature","geometry":{"type":"Point","coordinates":[-99.0913,19.4085]},"properties":{"id":"node/13092458095","osm_type":"node","osm_id":13092458095,"name":"Ciudad Deportiva","mode":"subway","system":"Metro","network":"STC Metro","operator":"Sistema de Transporte Colectivo","station":"subway","railway":"station","amenity":"","public_transport":"station"}},{"type":"Feature","geometry":{"type":"Point","coordinates":[-99.1031,19.4086]},"properties":{"id":"node/13092458096","osm_type":"node","osm_id":13092458096,"name":"Velódromo","mode":"subway","system":"Metro","network":"STC Metro","operator":"Sistema de Transporte Colectivo","station":"subway","railway":"station","amenity":"","public_transport":"station"}},{"type":"Feature","geometry":{"type":"Point","coordinates":[-99.0723,19.4154]},"properties":{"id":"node/13092458099","osm_type":"node","osm_id":13092458099,"name":"Pantitlán","mode":"subway","system":"Metro","network":"","operator":"Sistema de Transporte Colectivo","station":"subway","railway":"station","amenity":"","public_transport":"station"}},{"type":"Feature","geometry":{"type":"Point","coordinates":[-99.0719,19.4153]},"properties":{"id":"node/13092458100","osm_type":"node","osm_id":13092458100,"name":"Pantitlán","mode":"subway","system":"Metro","network":"Línea A","operator":"Sistema de Transporte Colectivo","station":"subway","railway":"station","amenity":"","public_transport":"station"}},{"type":"Feature","geometry":{"type":"Point","coordinates":[-99.0944,19.4408]},"properties":{"id":"node/13092535103","osm_type":"node","osm_id":13092535103,"name":"Romero Rubio","mode":"subway","system":"Metro","network":"STC Metro","operator":"Sistema de Transporte Colectivo","station":"subway","railway":"station","amenity":"","public_transport":"station"}},{"type":"Feature","geometry":{"type":"Point","coordinates":[-99.1037,19.4366]},"properties":{"id":"node/13092535120","osm_type":"node","osm_id":13092535120,"name":"Ricardo Flores Magón","mode":"subway","system":"Metro","network":"STC Metro","operator":"Sistema de Transporte Colectivo","station":"subway","railway":"station","amenity":"","public_transport":"station"}},{"type":"Feature","geometry":{"type":"Point","coordinates":[-99.1242,19.4428]},"properties":{"id":"node/13094174901","osm_type":"node","osm_id":13094174901,"name":"Tepito","mode":"subway","system":"Metro","network":"STC Metro","operator":"Sistema de Transporte Colectivo","station":"subway","railway":"station","amenity":"","public_transport":"station"}},{"type":"Feature","geometry":{"type":"Point","coordinates":[-99.1318,19.4433]},"properties":{"id":"node/13094174905","osm_type":"node","osm_id":13094174905,"name":"Lagunilla","mode":"subway","system":"Metro","network":"STC Metro","operator":"Sistema de Transporte Colectivo","station":"subway","railway":"station","amenity":"","public_transport":"station"}},{"type":"Feature","geometry":{"type":"Point","coordinates":[-99.088,19.4243]},"properties":{"id":"node/13094516124","osm_type":"node","osm_id":13094516124,"name":"Hangares","mode":"subway","system":"Metro","network":"STC Metro","operator":"Sistema de Transporte Colectivo","station":"subway","railway":"station","amenity":"","public_transport":"station"}},{"type":"Feature","geometry":{"type":"Point","coordinates":[-99.0883,19.434]},"properties":{"id":"node/13094516125","osm_type":"node","osm_id":13094516125,"name":"Terminal Aérea","mode":"subway","system":"Metro","network":"STC Metro","operator":"Sistema de Transporte Colectivo","station":"subway","railway":"station","amenity":"","public_transport":"station"}},{"type":"Feature","geometry":{"type":"Point","coordinates":[-99.0867,19.4447]},"properties":{"id":"node/13094516128","osm_type":"node","osm_id":13094516128,"name":"Oceanía","mode":"subway","system":"Metro","network":"STC Metro","operator":"","station":"subway","railway":"station","amenity":"","public_transport":"station"}},{"type":"Feature","geometry":{"type":"Point","coordinates":[-99.0962,19.4513]},"properties":{"id":"node/13094516129","osm_type":"node","osm_id":13094516129,"name":"Aragón","mode":"subway","system":"Metro","network":"STC Metro","operator":"Sistema de Transporte Colectivo","station":"subway","railway":"station","amenity":"","public_transport":"station"}},{"type":"Feature","geometry":{"type":"Point","coordinates":[-99.1135,19.4551]},"properties":{"id":"node/13094535905","osm_type":"node","osm_id":13094535905,"name":"Consulado","mode":"subway","system":"Metro","network":"STC Metro","operator":"","station":"subway","railway":"station","amenity":"","public_transport":"station"}},{"type":"Feature","geometry":{"type":"Point","coordinates":[-99.1053,19.4514]},"properties":{"id":"node/13094535910","osm_type":"node","osm_id":13094535910,"name":"Eduardo Molina","mode":"subway","system":"Metro","network":"STC Metro","operator":"Sistema de Transporte Colectivo","station":"subway","railway":"station","amenity":"","public_transport":"station"}},{"type":"Feature","geometry":{"type":"Point","coordinates":[-99.0748,19.4163]},"properties":{"id":"node/13099792390","osm_type":"node","osm_id":13099792390,"name":"Pantitlán","mode":"subway","system":"Metro","network":"","operator":"Sistema de Transporte Colectivo","station":"subway","railway":"station","amenity":"","public_transport":"station"}},{"type":"Feature","geometry":{"type":"Point","coordinates":[-99.0723,19.4169]},"properties":{"id":"way/293610446","osm_type":"way","osm_id":293610446,"name":"Pantitlán","mode":"brt","system":"BRT","network":"Mexibús L3","operator":"Red de Transporte de Oriente S.A. de C.V.","station":"","railway":"","amenity":"bus_station","public_transport":"station"}},{"type":"Feature","geometry":{"type":"Point","coordinates":[-99.1429,19.362]},"properties":{"id":"way/526205288","osm_type":"way","osm_id":526205288,"name":"Ermita L2","mode":"subway","system":"Metro","network":"STC Metro","operator":"","station":"subway","railway":"station","amenity":"","public_transport":"station"}},{"type":"Feature","geometry":{"type":"Point","coordinates":[-99.12,19.4292]},"properties":{"id":"way/1178449762","osm_type":"way","osm_id":1178449762,"name":"Candelaria","mode":"subway","system":"Metro","network":"STC Metro","operator":"","station":"subway","railway":"station","amenity":"","public_transport":"station"}},{"type":"Feature","geometry":{"type":"Point","coordinates":[-99.1247,19.4254]},"properties":{"id":"way/1258708454","osm_type":"way","osm_id":1258708454,"name":"La Merced","mode":"subway","system":"Metro","network":"STC Metro","operator":"","station":"subway","railway":"station","amenity":"","public_transport":"station"}},{"type":"Feature","geometry":{"type":"Point","coordinates":[-99.1196,19.4393]},"properties":{"id":"way/1258721563","osm_type":"way","osm_id":1258721563,"name":"Morelos LB","mode":"subway","system":"Metro","network":"STC Metro","operator":"","station":"subway","railway":"station","amenity":"","public_transport":"station"}},{"type":"Feature","geometry":{"type":"Point","coordinates":[-99.1142,19.43]},"properties":{"id":"way/1258849166","osm_type":"way","osm_id":1258849166,"name":"San Lázaro L1","mode":"subway","system":"Metro","network":"","operator":"","station":"subway","railway":"station","amenity":"","public_transport":"station"}},{"type":"Feature","geometry":{"type":"Point","coordinates":[-99.1476,19.4335]},"properties":{"id":"way/1258852271","osm_type":"way","osm_id":1258852271,"name":"Juárez","mode":"subway","system":"Metro","network":"STC Metro","operator":"","station":"subway","railway":"station","amenity":"","public_transport":"station"}},{"type":"Feature","geometry":{"type":"Point","coordinates":[-99.0463,19.3913]},"properties":{"id":"way/1296140498","osm_type":"way","osm_id":1296140498,"name":"Tepalcates","mode":"subway","system":"Metro","network":"STC Metro","operator":"Sistema de Transporte Colectivo","station":"subway","railway":"station","amenity":"","public_transport":"station"}},{"type":"Feature","geometry":{"type":"Point","coordinates":[-99.1432,19.4551]},"properties":{"id":"way/1298647771","osm_type":"way","osm_id":1298647771,"name":"Tlatelolco","mode":"subway","system":"Metro","network":"STC Metro","operator":"","station":"subway","railway":"station","amenity":"","public_transport":"station"}},{"type":"Feature","geometry":{"type":"Point","coordinates":[-99.1013,19.3559]},"properties":{"id":"way/1298653807","osm_type":"way","osm_id":1298653807,"name":"Atlalilco L8","mode":"subway","system":"Metro","network":"STC Metro","operator":"","station":"","railway":"","amenity":"","public_transport":"station"}},{"type":"Feature","geometry":{"type":"Point","coordinates":[-99.1041,19.3542]},"properties":{"id":"way/1298653808","osm_type":"way","osm_id":1298653808,"name":"Atlalilco L12","mode":"subway","system":"Metro","network":"STC Metro","operator":"","station":"","railway":"","amenity":"","public_transport":"station"}},{"type":"Feature","geometry":{"type":"Point","coordinates":[-99.1342,19.4087]},"properties":{"id":"way/1302146391","osm_type":"way","osm_id":1302146391,"name":"Chabacano L9","mode":"subway","system":"Metro","network":"","operator":"","station":"subway","railway":"station","amenity":"","public_transport":"station"}},{"type":"Feature","geometry":{"type":"Point","coordinates":[-99.1396,19.3429]},"properties":{"id":"way/1322433797","osm_type":"way","osm_id":1322433797,"name":"Tasqueña","mode":"trolleybus","system":"Trolleybus","network":"Trolebús","operator":"Servicio de Transportes Eléctricos de la Ciudad de México","station":"","railway":"","amenity":"bus_station","public_transport":"station"}},{"type":"Feature","geometry":{"type":"Point","coordinates":[-99.1437,19.4268]},"properties":{"id":"way/1366663086","osm_type":"way","osm_id":1366663086,"name":"Salto del Agua L1","mode":"subway","system":"Metro","network":"STC Metro","operator":"","station":"subway","railway":"station","amenity":"","public_transport":"station"}},{"type":"Feature","geometry":{"type":"Point","coordinates":[-99.1424,19.4275]},"properties":{"id":"way/1366663087","osm_type":"way","osm_id":1366663087,"name":"Salto del Agua L8","mode":"subway","system":"Metro","network":"STC Metro","operator":"","station":"subway","railway":"station","amenity":"","public_transport":"station"}},{"type":"Feature","geometry":{"type":"Point","coordinates":[-99.142,19.3604]},"properties":{"id":"way/1367187879","osm_type":"way","osm_id":1367187879,"name":"","mode":"subway","system":"Metro","network":"STC Metro","operator":"","station":"","railway":"","amenity":"","public_transport":"station"}},{"type":"Feature","geometry":{"type":"Point","coordinates":[-99.1347,19.4161]},"properties":{"id":"way/1459979371","osm_type":"way","osm_id":1459979371,"name":"San Antonio Abad","mode":"subway","system":"Metro","network":"STC Metro","operator":"","station":"subway","railway":"station","amenity":"","public_transport":"station"}},{"type":"Feature","geometry":{"type":"Point","coordinates":[-98.9952,19.3603]},"properties":{"id":"node/1149526719","osm_type":"node","osm_id":1149526719,"name":"Santa Marta","mode":"subway","system":"Metro","network":"STC Metro","operator":"Sistema de Transporte Colectivo","station":"subway","railway":"station","amenity":"","public_transport":"station"}},{"type":"Feature","geometry":{"type":"Point","coordinates":[-98.9769,19.359]},"properties":{"id":"node/1149526748","osm_type":"node","osm_id":1149526748,"name":"Los Reyes","mode":"subway","system":"Metro","network":"STC Metro","operator":"Sistema de Transporte Colectivo","station":"subway","railway":"station","amenity":"","public_transport":"station"}},{"type":"Feature","geometry":{"type":"Point","coordinates":[-98.9609,19.3505]},"properties":{"id":"node/1149526802","osm_type":"node","osm_id":1149526802,"name":"La Paz","mode":"subway","system":"Metro","network":"STC Metro","operator":"Sistema de Transporte Colectivo","station":"subway","railway":"station","amenity":"","public_transport":"station"}},{"type":"Feature","geometry":{"type":"Point","coordinates":[-99.017,19.3733]},"properties":{"id":"node/1155147125","osm_type":"node","osm_id":1155147125,"name":"Peñón Viejo","mode":"subway","system":"Metro","network":"STC Metro","operator":"Sistema de Transporte Colectivo","station":"subway","railway":"station","amenity":"","public_transport":"station"}},{"type":"Feature","geometry":{"type":"Point","coordinates":[-99.0356,19.3851]},"properties":{"id":"node/1155147244","osm_type":"node","osm_id":1155147244,"name":"Guelatao","mode":"subway","system":"Metro","network":"STC Metro","operator":"Sistema de Transporte Colectivo","station":"subway","railway":"station","amenity":"","public_transport":"station"}},{"type":"Feature","geometry":{"type":"Point","coordinates":[-99.0056,19.3647]},"properties":{"id":"node/3650765703","osm_type":"node","osm_id":3650765703,"name":"Acatitla","mode":"subway","system":"Metro","network":"STC Metro","operator":"Sistema de Transporte Colectivo","station":"subway","railway":"station","amenity":"","public_transport":"station"}},{"type":"Feature","geometry":{"type":"Point","coordinates":[-99.0435,19.3278]},"properties":{"id":"node/6868354392","osm_type":"node","osm_id":6868354392,"name":"Quetzalcóatl","mode":"cable_car","system":"Cable car","network":"Cablebús Línea 2","operator":"STE-CDMX","station":"","railway":"","amenity":"","public_transport":"station"}},{"type":"Feature","geometry":{"type":"Point","coordinates":[-99.0308,19.3318]},"properties":{"id":"node/6868354393","osm_type":"node","osm_id":6868354393,"name":"Las Torres Buenavista","mode":"cable_car","system":"Cable car","network":"Cablebús Línea 2","operator":"STE-CDMX","station":"","railway":"","amenity":"","public_transport":"station"}},{"type":"Feature","geometry":{"type":"Point","coordinates":[-99.0081,19.3409]},"properties":{"id":"node/6868354394","osm_type":"node","osm_id":6868354394,"name":"Lomas De La Estancia","mode":"cable_car","system":"Cable car","network":"Cablebús Línea 2","operator":"STE-CDMX","station":"","railway":"","amenity":"","public_transport":"station"}},{"type":"Feature","geometry":{"type":"Point","coordinates":[-98.9896,19.3436]},"properties":{"id":"node/6868354396","osm_type":"node","osm_id":6868354396,"name":"San Miguel Teotongo","mode":"cable_car","system":"Cable car","network":"Cablebús Línea 2","operator":"","station":"","railway":"","amenity":"","public_transport":"station"}},{"type":"Feature","geometry":{"type":"Point","coordinates":[-98.994,19.3596]},"properties":{"id":"node/6868354397","osm_type":"node","osm_id":6868354397,"name":"Santa Marta","mode":"cable_car","system":"Cable car","network":"Cablebús Línea 2","operator":"","station":"","railway":"","amenity":"","public_transport":"station"}},{"type":"Feature","geometry":{"type":"Point","coordinates":[-99.0189,19.3361]},"properties":{"id":"node/8932134798","osm_type":"node","osm_id":8932134798,"name":"Xalpa","mode":"cable_car","system":"Cable car","network":"Cablebús Línea 2","operator":"STE-CDMX","station":"","railway":"","amenity":"","public_transport":"station"}},{"type":"Feature","geometry":{"type":"Point","coordinates":[-99.019,19.3362]},"properties":{"id":"node/8932134801","osm_type":"node","osm_id":8932134801,"name":"Xalpa","mode":"cable_car","system":"Cable car","network":"Cablebús Línea 2","operator":"STE-CDMX","station":"","railway":"","amenity":"","public_transport":"station"}},{"type":"Feature","geometry":{"type":"Point","coordinates":[-98.9875,19.3519]},"properties":{"id":"node/12852049416","osm_type":"node","osm_id":12852049416,"name":"Teotongo","mode":"trolleybus","system":"Trolleybus","network":"Trolebús Línea 11","operator":"STE","station":"","railway":"","amenity":"bus_station","public_transport":"station"}},{"type":"Feature","geometry":{"type":"Point","coordinates":[-98.9632,19.3279]},"properties":{"id":"node/12852049417","osm_type":"node","osm_id":12852049417,"name":"Xico","mode":"trolleybus","system":"Trolleybus","network":"Trolebús Linea 11","operator":"STE","station":"","railway":"","amenity":"bus_station","public_transport":"station"}},{"type":"Feature","geometry":{"type":"Point","coordinates":[-98.9567,19.3222]},"properties":{"id":"node/12861870955","osm_type":"node","osm_id":12861870955,"name":"Parque de la Mujer","mode":"trolleybus","system":"Trolleybus","network":"Trolebús","operator":"STE","station":"","railway":"","amenity":"bus_station","public_transport":"station"}},{"type":"Feature","geometry":{"type":"Point","coordinates":[-98.9602,19.3505]},"properties":{"id":"node/13555578357","osm_type":"node","osm_id":13555578357,"name":"La Paz","mode":"light_rail","system":"Light rail","network":"Tren ligero Texcoco-La Paz","operator":"","station":"light_rail","railway":"prpopsed","amenity":"","public_transport":"station"}},{"type":"Feature","geometry":{"type":"Point","coordinates":[-98.964,19.3605]},"properties":{"id":"node/13555578358","osm_type":"node","osm_id":13555578358,"name":"Panteón Coaxusco","mode":"light_rail","system":"Light rail","network":"Tren ligero Texcoco-La Paz","operator":"","station":"light_rail","railway":"prpopsed","amenity":"","public_transport":"station"}},{"type":"Feature","geometry":{"type":"Point","coordinates":[-98.9527,19.3655]},"properties":{"id":"node/13555578359","osm_type":"node","osm_id":13555578359,"name":"Magdalena Atlicpac","mode":"light_rail","system":"Light rail","network":"Tren ligero Texcoco-La Paz","operator":"","station":"light_rail","railway":"prpopsed","amenity":"","public_transport":"station"}},{"type":"Feature","geometry":{"type":"Point","coordinates":[-98.9461,19.3737]},"properties":{"id":"node/13555578361","osm_type":"node","osm_id":13555578361,"name":"Hospital Materno Infantil","mode":"light_rail","system":"Light rail","network":"Tren ligero Texcoco-La Paz","operator":"","station":"light_rail","railway":"prpopsed","amenity":"","public_transport":"station"}},{"type":"Feature","geometry":{"type":"Point","coordinates":[-98.9567,19.3223]},"properties":{"id":"way/1388726488","osm_type":"way","osm_id":1388726488,"name":"Parque de la Mujer","mode":"trolleybus","system":"Trolleybus","network":"Trolebús","operator":"STE","station":"","railway":"","amenity":"bus_station","public_transport":"station"}},{"type":"Feature","geometry":{"type":"Point","coordinates":[-99.1905,19.4696]},"properties":{"id":"node/308562800","osm_type":"node","osm_id":308562800,"name":"Refinería","mode":"subway","system":"Metro","network":"STC Metro","operator":"Sistema de Transporte Colectivo","station":"subway","railway":"station","amenity":"","public_transport":"station"}},{"type":"Feature","geometry":{"type":"Point","coordinates":[-99.19,19.4791]},"properties":{"id":"node/308564178","osm_type":"node","osm_id":308564178,"name":"Camarones","mode":"subway","system":"Metro","network":"STC Metro","operator":"Sistema de Transporte Colectivo","station":"subway","railway":"station","amenity":"","public_transport":"station"}},{"type":"Feature","geometry":{"type":"Point","coordinates":[-99.1953,19.4907]},"properties":{"id":"node/308564186","osm_type":"node","osm_id":308564186,"name":"Aquiles Serdán","mode":"subway","system":"Metro","network":"STC Metro","operator":"Sistema de Transporte Colectivo","station":"subway","railway":"station","amenity":"","public_transport":"station"}},{"type":"Feature","geometry":{"type":"Point","coordinates":[-99.196,19.4949]},"properties":{"id":"node/351114417","osm_type":"node","osm_id":351114417,"name":"Tezozómoc","mode":"subway","system":"Metro","network":"STC Metro","operator":"Sistema de Transporte Colectivo","station":"subway","railway":"station","amenity":"","public_transport":"station"}},{"type":"Feature","geometry":{"type":"Point","coordinates":[-99.1863,19.4909]},"properties":{"id":"node/351114595","osm_type":"node","osm_id":351114595,"name":"UAM-Azcapotzalco","mode":"subway","system":"Metro","network":"STC Metro","operator":"Sistema de Transporte Colectivo","station":"subway","railway":"station","amenity":"","public_transport":"station"}},{"type":"Feature","geometry":{"type":"Point","coordinates":[-99.1739,19.4907]},"properties":{"id":"node/351114805","osm_type":"node","osm_id":351114805,"name":"Ferrería/Arena Ciudad de México","mode":"subway","system":"Metro","network":"STC Metro","operator":"Sistema de Transporte Colectivo","station":"subway","railway":"station","amenity":"","public_transport":"station"}},{"type":"Feature","geometry":{"type":"Point","coordinates":[-99.163,19.4886]},"properties":{"id":"node/351114820","osm_type":"node","osm_id":351114820,"name":"Norte 45","mode":"subway","system":"Metro","network":"STC Metro","operator":"Sistema de Transporte Colectivo","station":"subway","railway":"station","amenity":"","public_transport":"station"}},{"type":"Feature","geometry":{"type":"Point","coordinates":[-99.1561,19.4898]},"properties":{"id":"node/351114867","osm_type":"node","osm_id":351114867,"name":"Vallejo","mode":"subway","system":"Metro","network":"STC Metro","operator":"Sistema de Transporte Colectivo","station":"subway","railway":"station","amenity":"","public_transport":"station"}},{"type":"Feature","geometry":{"type":"Point","coordinates":[-99.1841,19.5357]},"properties":{"id":"node/5049810418","osm_type":"node","osm_id":5049810418,"name":"Tlalnepantla","mode":"commuter_rail","system":"Commuter rail","network":"FC Suburbano de México","operator":"Ferrocarriles Suburbanos","station":"","railway":"station","amenity":"","public_transport":"station"}},{"type":"Feature","geometry":{"type":"Point","coordinates":[-99.203,19.4587]},"properties":{"id":"node/5339522597","osm_type":"node","osm_id":5339522597,"name":"Panteones","mode":"subway","system":"Metro","network":"STC Metro","operator":"","station":"subway","railway":"station","amenity":"","public_transport":"station"}},{"type":"Feature","geometry":{"type":"Point","coordinates":[-99.1871,19.4589]},"properties":{"id":"node/5339524622","osm_type":"node","osm_id":5339524622,"name":"Tacuba","mode":"subway","system":"Metro","network":"STC Metro","operator":"","station":"subway","railway":"station","amenity":"","public_transport":"station"}},{"type":"Feature","geometry":{"type":"Point","coordinates":[-99.1815,19.4572]},"properties":{"id":"node/5339538498","osm_type":"node","osm_id":5339538498,"name":"Cuitláhuac","mode":"subway","system":"Metro","network":"STC Metro","operator":"","station":"subway","railway":"station","amenity":"","public_transport":"station"}},{"type":"Feature","geometry":{"type":"Point","coordinates":[-99.1999,19.5047]},"properties":{"id":"node/5382498627","osm_type":"node","osm_id":5382498627,"name":"El Rosario","mode":"subway","system":"Metro","network":"STC Metro","operator":"Sistema de Transporte Colectivo","station":"subway","railway":"station","amenity":"","public_transport":"station"}},{"type":"Feature","geometry":{"type":"Point","coordinates":[-99.195,19.5653]},"properties":{"id":"node/6948989569","osm_type":"node","osm_id":6948989569,"name":"San Rafael","mode":"commuter_rail","system":"Commuter rail","network":"FC Suburbano de México","operator":"FC Suburbano de México","station":"","railway":"station","amenity":"","public_transport":"station"}},{"type":"Feature","geometry":{"type":"Point","coordinates":[-99.1711,19.4918]},"properties":{"id":"node/7007923225","osm_type":"node","osm_id":7007923225,"name":"Fortuna","mode":"commuter_rail","system":"Commuter rail","network":"FC Suburbano de México","operator":"Ferrocarriles Suburbanos","station":"","railway":"station","amenity":"","public_transport":"station"}},{"type":"Feature","geometry":{"type":"Point","coordinates":[-99.2425,19.4571]},"properties":{"id":"way/1293733371","osm_type":"way","osm_id":1293733371,"name":"San Antonio Zomeyucan","mode":"cable_car","system":"Cable car","network":"Mexicable Línea 3","operator":"Mexicable","station":"","railway":"","amenity":"","public_transport":"station"}},{"type":"Feature","geometry":{"type":"Point","coordinates":[-99.1741,19.4907]},"properties":{"id":"way/1295836661","osm_type":"way","osm_id":1295836661,"name":"Ferrería/Arena Ciudad de México","mode":"subway","system":"Metro","network":"","operator":"","station":"subway","railway":"station","amenity":"","public_transport":"station"}},{"type":"Feature","geometry":{"type":"Point","coordinates":[-99.1883,19.4594]},"properties":{"id":"way/1298660154","osm_type":"way","osm_id":1298660154,"name":"Tacuba L2","mode":"subway","system":"Metro","network":"STC Metro","operator":"","station":"subway","railway":"station","amenity":"","public_transport":"station"}},{"type":"Feature","geometry":{"type":"Point","coordinates":[-99.1878,19.4582]},"properties":{"id":"way/1298660155","osm_type":"way","osm_id":1298660155,"name":"Tacuba L7","mode":"subway","system":"Metro","network":"STC Metro","operator":"","station":"subway","railway":"station","amenity":"","public_transport":"station"}},{"type":"Feature","geometry":{"type":"Point","coordinates":[-99.2152,19.4613]},"properties":{"id":"way/1478885745","osm_type":"way","osm_id":1478885745,"name":"Cuatro Caminos","mode":"cable_car","system":"Cable car","network":"Mexicable Línea 3","operator":"Mexicable","station":"","railway":"","amenity":"","public_transport":"station"}},{"type":"Feature","geometry":{"type":"Point","coordinates":[-99.2155,19.4633]},"properties":{"id":"way/1492959226","osm_type":"way","osm_id":1492959226,"name":"Alce Blanco","mode":"cable_car","system":"Cable car","network":"Mexicable Línea 3","operator":"","station":"","railway":"","amenity":"","public_transport":"station"}},{"type":"Feature","geometry":{"type":"Point","coordinates":[-99.2252,19.4623]},"properties":{"id":"way/1492959227","osm_type":"way","osm_id":1492959227,"name":"Lázaro Cárdenas","mode":"cable_car","system":"Cable car","network":"Mexicable Línea 3","operator":"Mexicable","station":"","railway":"","amenity":"","public_transport":"station"}},{"type":"Feature","geometry":{"type":"Point","coordinates":[-99.2377,19.4596]},"properties":{"id":"way/1492959228","osm_type":"way","osm_id":1492959228,"name":"El Molinito","mode":"cable_car","system":"Cable car","network":"Mexicable Línea 3","operator":"Mexicable","station":"","railway":"","amenity":"","public_transport":"station"}},{"type":"Feature","geometry":{"type":"Point","coordinates":[-99.2157,19.46]},"properties":{"id":"relation/12291992","osm_type":"relation","osm_id":12291992,"name":"Cuatro Caminos","mode":"subway","system":"Metro","network":"STC Metro","operator":"STC","station":"subway","railway":"station","amenity":"","public_transport":"station"}},{"type":"Feature","geometry":{"type":"Point","coordinates":[-99.1351,19.4881]},"properties":{"id":"node/351113759","osm_type":"node","osm_id":351113759,"name":"Lindavista","mode":"subway","system":"Metro","network":"STC Metro","operator":"Sistema de Transporte Colectivo","station":"subway","railway":"station","amenity":"","public_transport":"station"}},{"type":"Feature","geometry":{"type":"Point","coordinates":[-99.1184,19.4816]},"properties":{"id":"node/351115062","osm_type":"node","osm_id":351115062,"name":"La Villa-Basílica","mode":"subway","system":"Metro","network":"STC Metro","operator":"Sistema de Transporte Colectivo","station":"subway","railway":"station","amenity":"","public_transport":"station"}},{"type":"Feature","geometry":{"type":"Point","coordinates":[-99.108,19.4744]},"properties":{"id":"node/2266111986","osm_type":"node","osm_id":2266111986,"name":"Talismán","mode":"subway","system":"Metro","network":"STC Metro","operator":"","station":"","railway":"station","amenity":"","public_transport":"station"}},{"type":"Feature","geometry":{"type":"Point","coordinates":[-99.112,19.4646]},"properties":{"id":"node/2266111991","osm_type":"node","osm_id":2266111991,"name":"Bondojito","mode":"subway","system":"Metro","network":"STC Metro","operator":"Sistema de Transporte Colectivo","station":"subway","railway":"station","amenity":"","public_transport":"station"}},{"type":"Feature","geometry":{"type":"Point","coordinates":[-99.1304,19.4632]},"properties":{"id":"node/2288627580","osm_type":"node","osm_id":2288627580,"name":"Misterios","mode":"subway","system":"Metro","network":"STC Metro","operator":"Sistema de Transporte Colectivo","station":"subway","railway":"station","amenity":"","public_transport":"station"}},{"type":"Feature","geometry":{"type":"Point","coordinates":[-99.1201,19.459]},"properties":{"id":"node/2288627581","osm_type":"node","osm_id":2288627581,"name":"Valle Gómez","mode":"subway","system":"Metro","network":"STC Metro","operator":"Sistema de Transporte Colectivo","station":"subway","railway":"station","amenity":"","public_transport":"station"}},{"type":"Feature","geometry":{"type":"Point","coordinates":[-99.0745,19.5491]},"properties":{"id":"node/4434848152","osm_type":"node","osm_id":4434848152,"name":"Hank González","mode":"cable_car","system":"Cable car","network":"Mexicable Línea 1","operator":"","station":"","railway":"","amenity":"","public_transport":"station"}},{"type":"Feature","geometry":{"type":"Point","coordinates":[-99.0848,19.5618]},"properties":{"id":"node/4434848157","osm_type":"node","osm_id":4434848157,"name":"Los Bordos","mode":"cable_car","system":"Cable car","network":"Mexicable Línea 1","operator":"Mexicable","station":"","railway":"","amenity":"","public_transport":"station"}},{"type":"Feature","geometry":{"type":"Point","coordinates":[-99.0806,19.5563]},"properties":{"id":"node/4434848162","osm_type":"node","osm_id":4434848162,"name":"Tablas del Pozo","mode":"cable_car","system":"Cable car","network":"Mexicable Línea 1","operator":"Mexicable","station":"","railway":"","amenity":"","public_transport":"station"}},{"type":"Feature","geometry":{"type":"Point","coordinates":[-99.0781,19.5535]},"properties":{"id":"node/4437310111","osm_type":"node","osm_id":4437310111,"name":"Fátima","mode":"cable_car","system":"Cable car","network":"Mexicable Línea 1","operator":"Mexicable","station":"","railway":"","amenity":"","public_transport":"station"}},{"type":"Feature","geometry":{"type":"Point","coordinates":[-99.092,19.5688]},"properties":{"id":"node/4437310112","osm_type":"node","osm_id":4437310112,"name":"La Cañada","mode":"cable_car","system":"Cable car","network":"Mexicable Línea 1","operator":"Mexicable","station":"","railway":"","amenity":"","public_transport":"station"}},{"type":"Feature","geometry":{"type":"Point","coordinates":[-99.0588,19.5402]},"properties":{"id":"node/4437310113","osm_type":"node","osm_id":4437310113,"name":"Santa Clara","mode":"cable_car","system":"Cable car","network":"Mexicable Línea 1","operator":"Mexicable","station":"","railway":"","amenity":"","public_transport":"station"}},{"type":"Feature","geometry":{"type":"Point","coordinates":[-99.1395,19.4687]},"properties":{"id":"node/5335707477","osm_type":"node","osm_id":5335707477,"name":"La Raza","mode":"subway","system":"Metro","network":"STC Metro","operator":"Sistema de Transporte Colectivo","station":"subway","railway":"station","amenity":"","public_transport":"station"}},{"type":"Feature","geometry":{"type":"Point","coordinates":[-99.1068,19.4828]},"properties":{"id":"node/5363864103","osm_type":"node","osm_id":5363864103,"name":"Martín Carrera","mode":"subway","system":"Metro","network":"STC Metro","operator":"Sistema de Transporte Colectivo","station":"subway","railway":"station","amenity":"","public_transport":"station"}},{"type":"Feature","geometry":{"type":"Point","coordinates":[-99.1251,19.4843]},"properties":{"id":"node/5382514908","osm_type":"node","osm_id":5382514908,"name":"Deportivo 18 de Marzo","mode":"subway","system":"Metro","network":"STC Metro","operator":"Sistema de Transporte Colectivo","station":"subway","railway":"station","amenity":"","public_transport":"station"}},{"type":"Feature","geometry":{"type":"Point","coordinates":[-99.0879,19.5655]},"properties":{"id":"node/6389639696","osm_type":"node","osm_id":6389639696,"name":"Deportivo","mode":"cable_car","system":"Cable car","network":"Mexicable Línea 1","operator":"Mexicable","station":"","railway":"","amenity":"","public_transport":"station"}},{"type":"Feature","geometry":{"type":"Point","coordinates":[-99.0588,19.5399]},"properties":{"id":"node/6389639893","osm_type":"node","osm_id":6389639893,"name":"Terminal Mexibús Mexicable","mode":"brt","system":"BRT","network":"Línea 4","operator":"Mexibús","station":"","railway":"","amenity":"bus_station","public_transport":"station"}},{"type":"Feature","geometry":{"type":"Point","coordinates":[-99.1222,19.4952]},"properties":{"id":"node/6854760875","osm_type":"node","osm_id":6854760875,"name":"Indios Verdes","mode":"cable_car","system":"Cable car","network":"Cablebús","operator":"","station":"","railway":"","amenity":"","public_transport":"station"}},{"type":"Feature","geometry":{"type":"Point","coordinates":[-99.1339,19.5117]},"properties":{"id":"node/6854760878","osm_type":"node","osm_id":6854760878,"name":"Ticomán","mode":"cable_car","system":"Cable car","network":"Cablebús","operator":"","station":"","railway":"","amenity":"","public_transport":"station"}},{"type":"Feature","geometry":{"type":"Point","coordinates":[-99.142,19.5406]},"properties":{"id":"node/6854760880","osm_type":"node","osm_id":6854760880,"name":"Campos Revolución","mode":"cable_car","system":"Cable car","network":"Cablebús","operator":"","station":"","railway":"","amenity":"","public_transport":"station"}},{"type":"Feature","geometry":{"type":"Point","coordinates":[-99.1342,19.558]},"properties":{"id":"node/6854760882","osm_type":"node","osm_id":6854760882,"name":"Cuautepec","mode":"cable_car","system":"Cable car","network":"Cablebús","operator":"","station":"","railway":"","amenity":"","public_transport":"station"}},{"type":"Feature","geometry":{"type":"Point","coordinates":[-99.1409,19.5276]},"properties":{"id":"node/6854761312","osm_type":"node","osm_id":6854761312,"name":"La Pastora","mode":"cable_car","system":"Cable car","network":"Cablebús","operator":"","station":"","railway":"","amenity":"","public_transport":"station"}},{"type":"Feature","geometry":{"type":"Point","coordinates":[-99.1262,19.5448]},"properties":{"id":"node/6854761314","osm_type":"node","osm_id":6854761314,"name":"Tlalpexco","mode":"cable_car","system":"Cable car","network":"Cablebús","operator":"","station":"","railway":"","amenity":"","public_transport":"station"}},{"type":"Feature","geometry":{"type":"Point","coordinates":[-99.1183,19.4982]},"properties":{"id":"node/8934270154","osm_type":"node","osm_id":8934270154,"name":"Indios Verdes","mode":"cable_car","system":"Cable car","network":"Mexicable Línea 2","operator":"Mexicable","station":"","railway":"","amenity":"","public_transport":"station"}},{"type":"Feature","geometry":{"type":"Point","coordinates":[-99.107,19.5127]},"properties":{"id":"node/8934270155","osm_type":"node","osm_id":8934270155,"name":"Tanque de Agua","mode":"cable_car","system":"Cable car","network":"Mexicable Línea 2","operator":"Mexicable","station":"","railway":"","amenity":"","public_transport":"station"}},{"type":"Feature","geometry":{"type":"Point","coordinates":[-99.1006,19.5335]},"properties":{"id":"node/8934270157","osm_type":"node","osm_id":8934270157,"name":"San Isidro","mode":"cable_car","system":"Cable car","network":"Mexicable Línea 2","operator":"Mexicable","station":"","railway":"","amenity":"","public_transport":"station"}},{"type":"Feature","geometry":{"type":"Point","coordinates":[-99.0933,19.541]},"properties":{"id":"node/8934270158","osm_type":"node","osm_id":8934270158,"name":"Dr. Jorge Jiménez Cantú","mode":"cable_car","system":"Cable car","network":"Mexicable Línea 2","operator":"Mexicable","station":"","railway":"","amenity":"","public_transport":"station"}},{"type":"Feature","geometry":{"type":"Point","coordinates":[-99.0799,19.5437]},"properties":{"id":"node/8934270159","osm_type":"node","osm_id":8934270159,"name":"La Mesa","mode":"cable_car","system":"Cable car","network":"Mexicable Línea 2","operator":"","station":"","railway":"","amenity":"","public_transport":"station"}},{"type":"Feature","geometry":{"type":"Point","coordinates":[-99.0744,19.5489]},"properties":{"id":"node/8934270160","osm_type":"node","osm_id":8934270160,"name":"Carlos Hank González","mode":"cable_car","system":"Cable car","network":"Mexicable Línea 2","operator":"Mexicable","station":"","railway":"","amenity":"","public_transport":"station"}},{"type":"Feature","geometry":{"type":"Point","coordinates":[-99.0984,19.5176]},"properties":{"id":"node/9644497983","osm_type":"node","osm_id":9644497983,"name":"Periférico","mode":"cable_car","system":"Cable car","network":"Mexicable Línea 2","operator":"Mexicable","station":"","railway":"","amenity":"","public_transport":"station"}},{"type":"Feature","geometry":{"type":"Point","coordinates":[-99.0859,19.5064]},"properties":{"id":"node/11686340544","osm_type":"node","osm_id":11686340544,"name":"Río de los Remedios","mode":"brt","system":"BRT","network":"Mexibús Línea 2","operator":"SITRAMYTEM","station":"","railway":"","amenity":"bus_station","public_transport":"station"}},{"type":"Feature","geometry":{"type":"Point","coordinates":[-99.0739,19.502]},"properties":{"id":"node/11686340545","osm_type":"node","osm_id":11686340545,"name":"León de los Aldama","mode":"brt","system":"BRT","network":"Mexibús Línea 2","operator":"SITRAMYTEM","station":"","railway":"","amenity":"bus_station","public_transport":"station"}},{"type":"Feature","geometry":{"type":"Point","coordinates":[-99.1492,19.5006]},"properties":{"id":"node/12536496310","osm_type":"node","osm_id":12536496310,"name":"Politécnico","mode":"subway","system":"Metro","network":"STC Metro","operator":"Sistema de Transporte Colectivo","station":"subway","railway":"station","amenity":"","public_transport":"station"}},{"type":"Feature","geometry":{"type":"Point","coordinates":[-99.0468,19.4906]},"properties":{"id":"node/13089350834","osm_type":"node","osm_id":13089350834,"name":"Río de Remedios","mode":"subway","system":"Metro","network":"STC Metro","operator":"Sistema de Transporte Colectivo","station":"subway","railway":"station","amenity":"","public_transport":"station"}},{"type":"Feature","geometry":{"type":"Point","coordinates":[-99.049,19.4857]},"properties":{"id":"node/13089350835","osm_type":"node","osm_id":13089350835,"name":"Impulsora","mode":"subway","system":"Metro","network":"STC Metro","operator":"Sistema de Transporte Colectivo","station":"subway","railway":"station","amenity":"","public_transport":"station"}},{"type":"Feature","geometry":{"type":"Point","coordinates":[-99.0546,19.4729]},"properties":{"id":"node/13089350842","osm_type":"node","osm_id":13089350842,"name":"Nezahualcóyotl","mode":"subway","system":"Metro","network":"STC Metro","operator":"Sistema de Transporte Colectivo","station":"subway","railway":"station","amenity":"","public_transport":"station"}},{"type":"Feature","geometry":{"type":"Point","coordinates":[-99.0613,19.4617]},"properties":{"id":"node/13089350843","osm_type":"node","osm_id":13089350843,"name":"Villa de Aragón","mode":"subway","system":"Metro","network":"STC Metro","operator":"Sistema de Transporte Colectivo","station":"subway","railway":"station","amenity":"","public_transport":"station"}},{"type":"Feature","geometry":{"type":"Point","coordinates":[-99.0693,19.4581]},"properties":{"id":"node/13089350844","osm_type":"node","osm_id":13089350844,"name":"Bosque de Aragón","mode":"subway","system":"Metro","network":"STC Metro","operator":"Sistema de Transporte Colectivo","station":"subway","railway":"station","amenity":"","public_transport":"station"}},{"type":"Feature","geometry":{"type":"Point","coordinates":[-99.1365,19.4697]},"properties":{"id":"node/13096157856","osm_type":"node","osm_id":13096157856,"name":"La Raza","mode":"subway","system":"Metro","network":"","operator":"","station":"subway","railway":"station","amenity":"","public_transport":"station"}},{"type":"Feature","geometry":{"type":"Point","coordinates":[-99.1406,19.4789]},"properties":{"id":"node/13096157888","osm_type":"node","osm_id":13096157888,"name":"Autobuses del Norte","mode":"subway","system":"Metro","network":"STC Metro","operator":"Sistema de Transporte Colectivo","station":"subway","railway":"station","amenity":"","public_transport":"station"}},{"type":"Feature","geometry":{"type":"Point","coordinates":[-99.1447,19.4894]},"properties":{"id":"node/13096174704","osm_type":"node","osm_id":13096174704,"name":"Instituto del Petróleo","mode":"subway","system":"Metro","network":"STC Metro","operator":"","station":"subway","railway":"station","amenity":"","public_transport":"station"}},{"type":"Feature","geometry":{"type":"Point","coordinates":[-99.1139,19.4581]},"properties":{"id":"node/13100444139","osm_type":"node","osm_id":13100444139,"name":"Consulado L4","mode":"subway","system":"Metro","network":"STC Metro","operator":"","station":"subway","railway":"station","amenity":"","public_transport":"station"}},{"type":"Feature","geometry":{"type":"Point","coordinates":[-99.0614,19.4616]},